[{"assetId":100000034,"name":"Bull Creek Hut","status":"OPEN","region":"Canterbury","lat":-42.893126,"lon":171.968301},{"assetId":100034582,"name":"Esk Bivvy","status":"OPEN","region":"Canterbury","lat":-42.895774,"lon":172.222413},{"assetId":100043375,"name":"Candlesticks Bivvy","status":"OPEN","region":"Canterbury","lat":-42.829027,"lon":172.023666},{"assetId":100030268,"name":"Sudden Valley Bivvy","status":"OPEN","region":"Canterbury","lat":-42.949439,"lon":171.704687},{"assetId":100035123,"name":"Old Basins Hut","status":"OPEN","region":"Canterbury","lat":-43.099851,"lon":171.480232},{"assetId":100072826,"name":"Diggers Hut","status":"CLSD","region":"Manawatu/Whanganui","lat":-40.101327,"lon":175.95513},{"assetId":100081587,"name":"Stafford Hut","status":"OPEN","region":"West Coast","lat":-43.996134,"lon":168.54516},{"assetId":100062383,"name":"Douglas Rock Hut","status":"OPEN","region":"West Coast","lat":-43.652663,"lon":170.01894},{"assetId":100054371,"name":"Avoca Homestead ","status":"OPEN","region":"Canterbury","lat":-43.19428,"lon":171.887773},{"assetId":100102372,"name":"Creswicke Flat Hut","status":"OPEN","region":"West Coast","lat":-43.922952,"lon":169.688708},{"assetId":100035141,"name":"Coppermine Creek Hut","status":"OPEN","region":"West Coast","lat":-43.822562,"lon":169.167801},{"assetId":100060433,"name":"Middle Head Hut","status":"OPEN","region":"West Coast","lat":-43.823686,"lon":169.455252},{"assetId":100062367,"name":"Blue River (Blowfly) Hut","status":"OPEN","region":"West Coast","lat":-43.792539,"lon":169.345996},{"assetId":100059868,"name":"Crow Hut","status":"OPEN","region":"Canterbury","lat":-42.943433,"lon":171.517009},{"assetId":100059653,"name":"Christmas Flat Hut","status":"OPEN","region":"West Coast","lat":-43.718894,"lon":169.907644},{"assetId":100059656,"name":"Cassel Flat Hut","status":"OPEN","region":"West Coast","lat":-43.658489,"lon":169.826856},{"assetId":100075079,"name":"Horace Walker Hut","status":"OPEN","region":"West Coast","lat":-43.688918,"lon":169.921817},{"assetId":100064753,"name":"Avoca Hut","status":"OPEN","region":"Canterbury","lat":-43.053251,"lon":171.430229},{"assetId":100065846,"name":"Pioneer Hut","status":"OPEN","region":"West Coast","lat":-43.530794,"lon":170.18115},{"assetId":100058994,"name":"Gorge River Hut","status":"OPEN","region":"West Coast","lat":-44.183814,"lon":168.194029},{"assetId":100075781,"name":"Trust/Poulter Hut","status":"OPEN","region":"Canterbury","lat":-42.8547,"lon":171.842848},{"assetId":100062366,"name":"Horseshoe Flat Hut","status":"OPEN","region":"West Coast","lat":-43.809427,"lon":169.414088},{"assetId":100062449,"name":"Maori Saddle Hut","status":"OPEN","region":"West Coast","lat":-43.814201,"lon":169.274191},{"assetId":100081613,"name":"Lame Duck Hut","status":"OPEN","region":"West Coast","lat":-43.706801,"lon":169.866938},{"assetId":100035121,"name":"Lagoon Saddle A Frame Hut","status":"OPEN","region":"Canterbury","lat":-43.055133,"lon":171.601687},{"assetId":100061488,"name":"West Harper Hut","status":"OPEN","region":"Canterbury","lat":-43.099772,"lon":171.607037},{"assetId":100060889,"name":"Cass Saddle Hut","status":"OPEN","region":"Canterbury","lat":-43.097087,"lon":171.69154},{"assetId":100061497,"name":"Mingha Bivvy","status":"OPEN","region":"Canterbury","lat":-42.922636,"lon":171.630113},{"assetId":100059548,"name":"Turnbull Bivvy","status":"OPEN","region":"Canterbury","lat":-42.956096,"lon":171.908709},{"assetId":100075782,"name":"Minchin Bivvy","status":"OPEN","region":"Canterbury","lat":-42.794522,"lon":171.809903},{"assetId":100038137,"name":"Hawdon Hut","status":"OPEN","region":"Canterbury","lat":-42.911067,"lon":171.732663},{"assetId":100062738,"name":"Carrington Hut","status":"OPEN","region":"Canterbury","lat":-42.959872,"lon":171.448152},{"assetId":100063461,"name":"Hamilton Hut","status":"OPEN","region":"Canterbury","lat":-43.129339,"lon":171.629787},{"assetId":100061979,"name":"Architect Creek Hut","status":"OPEN","region":"West Coast","lat":-43.61136,"lon":169.884875},{"assetId":100058782,"name":"Spoon Hut","status":"OPEN","region":"West Coast","lat":-44.165627,"lon":168.311119},{"assetId":100062578,"name":"Bealey Spur Hut","status":"OPEN","region":"Canterbury","lat":-43.03425,"lon":171.57027},{"assetId":100062737,"name":"Bealey Hut","status":"OPEN","region":"Canterbury","lat":-43.037768,"lon":171.641758},{"assetId":100034979,"name":"Black Hill Hut","status":"OPEN","region":"Canterbury","lat":-43.179287,"lon":172.00618},{"assetId":100059802,"name":"Tarn Hut","status":"OPEN","region":"Canterbury","lat":-43.038947,"lon":172.149233},{"assetId":100059803,"name":"Youngman Stream Hut","status":"OPEN","region":"Canterbury","lat":-43.025362,"lon":172.183026},{"assetId":100059804,"name":"Lower Salmon Creek Bivvy","status":"OPEN","region":"Canterbury","lat":-43.161718,"lon":171.980473},{"assetId":100061399,"name":"Wharfedale Hut","status":"OPEN","region":"Canterbury","lat":-43.197731,"lon":172.042288},{"assetId":100062380,"name":"Tunnel Creek Hut","status":"OPEN","region":"West Coast","lat":-43.818427,"lon":169.537018},{"assetId":100034515,"name":"Ant Stream Hut","status":"OPEN","region":"Canterbury","lat":-42.896969,"lon":172.089004},{"assetId":100034516,"name":"Anderson's Hut","status":"CLSD","region":"Canterbury","lat":-42.901521,"lon":172.156612},{"assetId":100034583,"name":"Ant Stream Bivvy","status":"OPEN","region":"Canterbury","lat":-42.867453,"lon":172.096159},{"assetId":100034978,"name":"Pinchgut Hut","status":"OPEN","region":"Canterbury","lat":-43.129466,"lon":172.3374},{"assetId":100085933,"name":"Waimak Gorge - Walker Hut","status":"OPEN","region":null,"lat":-43.194134,"lon":171.95154},{"assetId":100085934,"name":"Waimak Gorge - Hamilton Hut","status":"OPEN","region":null,"lat":-43.118264,"lon":171.966751},{"assetId":100030269,"name":"Poulter Bivvy","status":"OPEN","region":"Canterbury","lat":-42.815305,"lon":171.770607},{"assetId":100034581,"name":"Worsley Bivvy","status":"OPEN","region":"Canterbury","lat":-42.851271,"lon":171.783124},{"assetId":100059856,"name":"Poulter Hut","status":"OPEN","region":"Canterbury","lat":-42.849446,"lon":171.809975},{"assetId":100081794,"name":"East Hawdon Bivvy","status":"OPEN","region":"Canterbury","lat":-42.899954,"lon":171.775626},{"assetId":100061494,"name":"Edwards Hut","status":"OPEN","region":"Canterbury","lat":-42.942604,"lon":171.647112},{"assetId":100063470,"name":"Goat Pass Hut","status":"OPEN","region":"Canterbury","lat":-42.901564,"lon":171.624823},{"assetId":100064754,"name":"Barker Hut","status":"OPEN","region":"Canterbury","lat":-42.988982,"lon":171.397607},{"assetId":100064755,"name":"Park Morpeth Hut","status":"OPEN","region":"Canterbury","lat":-42.971773,"lon":171.341915},{"assetId":100034519,"name":"Moa Stream Hut","status":"OPEN","region":"Canterbury","lat":-43.129141,"lon":171.260708},{"assetId":100034520,"name":"Urquhart's Hut","status":"OPEN","region":"Canterbury","lat":-43.034074,"lon":171.317063},{"assetId":100059544,"name":"Unknown Stream Hut","status":"OPEN","region":"Canterbury","lat":-43.065869,"lon":171.273478},{"assetId":100059545,"name":"Weka Burnet Bivvy","status":"OPEN","region":"Canterbury","lat":-43.052896,"lon":171.338122},{"assetId":100064756,"name":"Benmore Hut","status":"OPEN","region":"Canterbury","lat":-43.368931,"lon":171.756544},{"assetId":100061447,"name":"Back Basins Hide","status":"OPEN","region":"Canterbury","lat":-43.086911,"lon":171.433473},{"assetId":100059655,"name":"Welcome Flat Hut","status":"OPEN","region":"West Coast","lat":-43.630571,"lon":169.946466},{"assetId":100058783,"name":"Thomas River Hut","status":"OPEN","region":"West Coast","lat":-43.893734,"lon":169.195092},{"assetId":100061833,"name":"Roaring Billy Hut","status":"OPEN","region":"West Coast","lat":-43.895098,"lon":169.322093},{"assetId":100034518,"name":"Basins Hut","status":"OPEN","region":"Canterbury","lat":-43.101487,"lon":171.478668},{"assetId":100034550,"name":"Lagoon Saddle Hut","status":"OPEN","region":"Canterbury","lat":-43.054856,"lon":171.601116},{"assetId":100063006,"name":"Anti Crow Hut","status":"OPEN","region":"Canterbury","lat":-42.999659,"lon":171.511387},{"assetId":100034521,"name":"Puketeraki Bivvy","status":"OPEN","region":"Canterbury","lat":-43.112037,"lon":171.973223},{"assetId":100034584,"name":"Ranger Bivvy","status":"OPEN","region":"Canterbury","lat":-42.85636,"lon":171.896134},{"assetId":100059546,"name":"Broken River Hut","status":"OPEN","region":"Canterbury","lat":-43.189794,"lon":171.836094},{"assetId":100074917,"name":"Chancellor Hut","status":"OPEN","region":"West Coast","lat":-43.510749,"lon":170.107575},{"assetId":100034523,"name":"Lochinvar Hut","status":"OPEN","region":"Canterbury","lat":-42.934337,"lon":172.007407},{"assetId":100059955,"name":"Waimakariri Falls Hut","status":"OPEN","region":"Canterbury","lat":-42.917899,"lon":171.487726},{"assetId":100075783,"name":"Upper Deception Hut","status":"OPEN","region":"Canterbury","lat":-42.883716,"lon":171.616574},{"assetId":100000537,"name":"Mangatepopo Hut","status":"OPEN","region":"Central North Island","lat":-39.144585,"lon":175.596732},{"assetId":100033374,"name":"Luxmore Hut  ","status":"OPEN","region":"Fiordland","lat":-45.385232,"lon":167.619159},{"assetId":100034793,"name":"Jans Hut","status":"OPEN","region":"Wellington/Kapiti","lat":-41.342116,"lon":174.981287},{"assetId":100039037,"name":"Plateau Hut","status":"OPEN","region":"Canterbury","lat":-43.583746,"lon":170.184141},{"assetId":100040743,"name":"Motukawanui Hut","status":"OPEN","region":"Northland","lat":-35.007078,"lon":173.938055},{"assetId":100040748,"name":"Frampton's Hut","status":"OPEN","region":"Northland","lat":-35.512035,"lon":173.472872},{"assetId":100040842,"name":"Mueller Hut","status":"OPEN","region":"Canterbury","lat":-43.721012,"lon":170.064635},{"assetId":100043353,"name":"Pinnacles Hut","status":"OPEN","region":"Coromandel","lat":-37.042032,"lon":175.712662},{"assetId":100043899,"name":"Tangihua Hut","status":"OPEN","region":"Northland","lat":-35.850427,"lon":174.110452},{"assetId":100044063,"name":"Puketotara Hut","status":"OPEN","region":"Manawatu/Whanganui","lat":-39.349606,"lon":174.97656},{"assetId":100055189,"name":"Iris Burn Hut  ","status":"OPEN","region":"Fiordland","lat":-45.398932,"lon":167.509576},{"assetId":100055524,"name":"Moturau Hut ","status":"OPEN","region":"Fiordland","lat":-45.481883,"lon":167.610361},{"assetId":100056797,"name":"Oamaru Hut","status":"OPEN","region":"Central North Island","lat":-39.075434,"lon":176.264811},{"assetId":100058116,"name":"Lane Cove Hut","status":"OPEN","region":"Northland","lat":-35.012235,"lon":173.730938},{"assetId":100058130,"name":"Peach Cove Hut","status":"OPEN","region":"Northland","lat":-35.857295,"lon":174.566218},{"assetId":100058875,"name":"Lake Mackenzie Hut ","status":"OPEN","region":"Fiordland","lat":-44.767682,"lon":168.174537},{"assetId":100058912,"name":"Dumpling Hut","status":"OPEN","region":"Fiordland","lat":-44.768481,"lon":167.764763},{"assetId":100059056,"name":"Routeburn Flats Hut ","status":"OPEN","region":"Otago","lat":-44.725185,"lon":168.214711},{"assetId":100060060,"name":"Kahurangi Keepers house","status":"OPEN","region":"Nelson/Tasman","lat":-40.775503,"lon":172.227887},{"assetId":100060081,"name":"Saxon Hut","status":"OPEN","region":"Nelson/Tasman","lat":-40.88623,"lon":172.308207},{"assetId":100060150,"name":"John Tait Hut","status":"OPEN","region":"Nelson/Tasman","lat":-41.974753,"lon":172.768679},{"assetId":100060245,"name":"Lewis Hut","status":"OPEN","region":"Nelson/Tasman","lat":-40.939991,"lon":172.147974},{"assetId":100060644,"name":"Macaulay Hut","status":"OPEN","region":"Canterbury","lat":-43.580428,"lon":170.603524},{"assetId":100060765,"name":"Raukawa Hut","status":"OPEN","region":"Wellington/Kapiti","lat":-41.3432,"lon":174.97587},{"assetId":100061052,"name":"John Coull Hut","status":"OPEN","region":"Manawatu/Whanganui","lat":-39.233331,"lon":174.91364},{"assetId":100061388,"name":"Jumbo Hut","status":"OPEN","region":"Wairarapa","lat":-40.85401,"lon":175.440191},{"assetId":100061607,"name":"Top Gordon Hut","status":"OPEN","region":"Marlborough","lat":-41.931822,"lon":173.195342},{"assetId":100062554,"name":"Woolshed Creek Hut","status":"OPEN","region":"Canterbury","lat":-43.601145,"lon":171.325854},{"assetId":100063328,"name":"Tīeke Kāinga","status":"OPEN","region":"Manawatu/Whanganui","lat":-39.337386,"lon":174.99312},{"assetId":100064112,"name":"Fenella Hut","status":"OPEN","region":"Nelson/Tasman","lat":-41.049585,"lon":172.525278},{"assetId":100065076,"name":"Clinton Hut","status":"OPEN","region":"Fiordland","lat":-44.906574,"lon":167.907761},{"assetId":100065316,"name":"Routeburn Falls Hut ","status":"OPEN","region":"Otago","lat":-44.725853,"lon":168.199339},{"assetId":100073019,"name":"Oturere Hut","status":"OPEN","region":"Central North Island","lat":-39.158648,"lon":175.689245},{"assetId":100073237,"name":"Te Puia Hut (Lodge)","status":"OPEN","region":"Hawke’s Bay","lat":-39.172305,"lon":176.409747},{"assetId":100073818,"name":"Cape Brett Hut","status":"OPEN","region":"Northland","lat":-35.172689,"lon":174.331012},{"assetId":100073976,"name":"Kaiaraara Hut","status":"OPEN","region":"Auckland","lat":-36.183956,"lon":175.377551},{"assetId":100074266,"name":"Mintaro Hut","status":"OPEN","region":"Fiordland","lat":-44.809659,"lon":167.781489},{"assetId":100074377,"name":"Puketi Forest Hut","status":"OPEN","region":"Northland","lat":-35.211223,"lon":173.793902},{"assetId":100074848,"name":"Aspiring Hut","status":"OPEN","region":"Otago","lat":-44.477119,"lon":168.660106},{"assetId":100075296,"name":"Kelman Hut","status":"OPEN","region":"Canterbury","lat":-43.518522,"lon":170.360579},{"assetId":100075329,"name":"Nina Hut","status":"OPEN","region":"Canterbury","lat":-42.465862,"lon":172.32211},{"assetId":100075837,"name":"Holly Hut","status":"OPEN","region":"Taranaki","lat":-39.265407,"lon":174.045935},{"assetId":100081242,"name":"Waihohonu Hut","status":"OPEN","region":"Central North Island","lat":-39.209462,"lon":175.679742},{"assetId":100086125,"name":"Mt Heale Hut","status":"OPEN","region":"Auckland","lat":-36.193253,"lon":175.412892},{"assetId":100086639,"name":"Haurangi Hut","status":"OPEN","region":"Wellington/Kapiti","lat":-41.328402,"lon":174.997266},{"assetId":100086641,"name":"Papatahi Hut","status":"OPEN","region":"Wellington/Kapiti","lat":-41.324401,"lon":175.018531},{"assetId":100089121,"name":"Turere Lodge","status":"OPEN","region":"Wellington/Kapiti","lat":-41.335327,"lon":174.984284},{"assetId":100092426,"name":"Perry Saddle Hut","status":"OPEN","region":"Nelson/Tasman","lat":-40.900839,"lon":172.402773},{"assetId":100094975,"name":"Heaphy Hut","status":"OPEN","region":"Nelson/Tasman","lat":-40.986597,"lon":172.110701},{"assetId":100097382,"name":"OGR - Specimen Point Hut","status":"OPEN","region":null,"lat":-41.544702,"lon":172.152216},{"assetId":100097388,"name":"OGR - Stern Valley Hut","status":"OPEN","region":null,"lat":-41.663634,"lon":172.19886},{"assetId":100097391,"name":"OGR - Ghost Lake Hut","status":"OPEN","region":null,"lat":-41.699982,"lon":172.159074},{"assetId":100097401,"name":"OGR - Lyell Saddle Hut","status":"OPEN","region":null,"lat":-41.723838,"lon":172.099262},{"assetId":100098286,"name":"Kopuatai Duck Hut 5","status":"OPEN","region":null,"lat":-37.419563,"lon":175.527777},{"assetId":100098288,"name":"Kopuatai Duck Hut 7","status":"OPEN","region":null,"lat":-37.427746,"lon":175.514696},{"assetId":100098289,"name":"Kopuatai Duck Hut 8","status":"OPEN","region":null,"lat":-37.43568,"lon":175.520838},{"assetId":100098290,"name":"Kopuatai Duck Hut 9","status":"OPEN","region":null,"lat":-37.43803,"lon":175.519222},{"assetId":100098291,"name":"Kopuatai Duck Hut 10","status":"OPEN","region":null,"lat":-37.432356,"lon":175.519065},{"assetId":100098292,"name":"Kopuatai Duck Hut 12","status":"OPEN","region":null,"lat":-37.44006,"lon":175.520397},{"assetId":100098293,"name":"Kopuatai Duck Hut 16","status":"OPEN","region":null,"lat":-37.448694,"lon":175.523728},{"assetId":100098722,"name":"James Mackay Hut","status":"OPEN","region":"Nelson/Tasman","lat":-40.886125,"lon":172.217012},{"assetId":100000538,"name":"Scone Hut","status":"OPEN","region":"West Coast","lat":-43.376697,"lon":170.568549},{"assetId":100000552,"name":"Browning Range Bivvy","status":"OPEN","region":"West Coast","lat":-42.906271,"lon":171.27429},{"assetId":100000803,"name":"Dillon Hut","status":"OPEN","region":"West Coast","lat":-42.786107,"lon":171.486868},{"assetId":100030272,"name":"Zekes Hut","status":"OPEN","region":"Central North Island","lat":-39.541459,"lon":175.745903},{"assetId":100030281,"name":"Stag Flat Shelter","status":"OPEN","region":"Nelson/Tasman","lat":-41.396578,"lon":172.29537},{"assetId":100030360,"name":"Frew Hut","status":"OPEN","region":"West Coast","lat":-43.049589,"lon":171.043561},{"assetId":100030531,"name":"Granity Pass Hut","status":"OPEN","region":"Nelson/Tasman","lat":-41.522959,"lon":172.561207},{"assetId":100031262,"name":"Otanetea Hut","status":"OPEN","region":"East Coast","lat":-38.490623,"lon":177.053404},{"assetId":100031263,"name":"Waihua Hut","status":"OPEN","region":"East Coast","lat":-38.277444,"lon":176.888341},{"assetId":100031264,"name":"Ohane Hut","status":"OPEN","region":"East Coast","lat":-38.398771,"lon":177.034572},{"assetId":100031265,"name":"Manganuku Hut","status":"OPEN","region":"East Coast","lat":-38.271746,"lon":177.435254},{"assetId":100031266,"name":"Manaohou Right Branch Hut","status":"OPEN","region":"East Coast","lat":-38.412842,"lon":176.917887},{"assetId":100033502,"name":"Marauiti Hut","status":"OPEN","region":"East Coast","lat":-38.767659,"lon":176.995923},{"assetId":100033506,"name":"Te Totara Hut","status":"OPEN","region":"East Coast","lat":-38.731199,"lon":176.873802},{"assetId":100033575,"name":"Dickie Spur Hut","status":"OPEN","region":"West Coast","lat":-43.058888,"lon":170.869505},{"assetId":100033576,"name":"Mikonui Spur Bivvy","status":"OPEN","region":"West Coast","lat":-43.029287,"lon":170.936624},{"assetId":100033580,"name":"Whymper Hut","status":"OPEN","region":"West Coast","lat":-43.443295,"lon":170.371528},{"assetId":100033705,"name":"Waipawa Forks Hut","status":"OPEN","region":"Hawke’s Bay","lat":-39.798941,"lon":176.175728},{"assetId":100033707,"name":"Mackintosh Hut","status":"OPEN","region":"Hawke’s Bay","lat":-39.328946,"lon":176.399443},{"assetId":100033708,"name":"Barlow Hut","status":"OPEN","region":"Manawatu/Whanganui","lat":-39.714445,"lon":176.212178},{"assetId":100033709,"name":"Ngaawapurua Hut","status":"OPEN","region":"Hawke’s Bay","lat":-39.234449,"lon":176.248292},{"assetId":100033710,"name":"Otutu Hut","status":"OPEN","region":"Hawke’s Bay","lat":-39.273644,"lon":176.232742},{"assetId":100033711,"name":"Kiwi Mouth Hut ","status":"OPEN","region":"Hawke’s Bay","lat":-39.324546,"lon":176.278833},{"assetId":100033712,"name":"Cameron Hut","status":"OPEN","region":"Hawke’s Bay","lat":-39.362121,"lon":176.291465},{"assetId":100033714,"name":"Te Pukeohikarua (Te Puke) Hut","status":"OPEN","region":"Hawke’s Bay","lat":-39.193077,"lon":176.276471},{"assetId":100033715,"name":"Back Ridge Hut","status":"OPEN","region":"Hawke’s Bay","lat":-39.27657,"lon":176.356795},{"assetId":100033736,"name":"Rocks Ahead Bivouac","status":"OPEN","region":"Hawke’s Bay","lat":-39.275469,"lon":176.295457},{"assetId":100033737,"name":"Back Ridge Bivouac","status":"OPEN","region":"Hawke’s Bay","lat":-39.288863,"lon":176.330895},{"assetId":100033740,"name":"Makaretu Hut","status":"OPEN","region":"Hawke’s Bay","lat":-40.002988,"lon":176.11636},{"assetId":100033763,"name":"Newton Range Bivvy","status":"OPEN","region":"West Coast","lat":-42.878933,"lon":171.267779},{"assetId":100033776,"name":"Moonbeam Hut","status":"OPEN","region":"West Coast","lat":-43.140098,"lon":170.805624},{"assetId":100033867,"name":"Lower Olderog Bivvy","status":"OPEN","region":"West Coast","lat":-42.838085,"lon":171.305642},{"assetId":100033868,"name":"Crawford Junction Hut","status":"OPEN","region":"West Coast","lat":-42.960346,"lon":171.233619},{"assetId":100033869,"name":"Polluck Creek Hut","status":"OPEN","region":"West Coast","lat":-43.063981,"lon":170.822931},{"assetId":100033870,"name":"Campbell Bivvy","status":"OPEN","region":"West Coast","lat":-42.898227,"lon":171.354188},{"assetId":100033953,"name":"Skips Hut (Whangatawhia)","status":"OPEN","region":"East Coast","lat":-38.720584,"lon":176.800206},{"assetId":100034326,"name":"Pell Stream Hut","status":"OPEN","region":"West Coast","lat":-42.324856,"lon":172.337777},{"assetId":100034329,"name":"Wheel Creek Hut","status":"OPEN","region":"West Coast","lat":-42.070757,"lon":172.131762},{"assetId":100034330,"name":"Top Waitahu Bivvy","status":"OPEN","region":"West Coast","lat":-42.20441,"lon":172.108106},{"assetId":100034522,"name":"Otehake Hut","status":"OPEN","region":"West Coast","lat":-42.85753,"lon":171.710784},{"assetId":100034558,"name":"Pahautea Hut","status":"OPEN","region":"Waikato","lat":-37.993477,"lon":175.091906},{"assetId":100034579,"name":"Kiwi Hut","status":"OPEN","region":"Canterbury","lat":-42.756888,"lon":171.743228},{"assetId":100034580,"name":"Townsend Hut","status":"OPEN","region":"Canterbury","lat":-42.774198,"lon":171.77752},{"assetId":100034619,"name":"Adventure Bivvy","status":"OPEN","region":"West Coast","lat":-42.971817,"lon":171.165442},{"assetId":100034620,"name":"Hunts Creek Hut","status":"OPEN","region":"West Coast","lat":-42.840832,"lon":171.501318},{"assetId":100034621,"name":"Yeats Ridge Hut","status":"OPEN","region":"West Coast","lat":-42.984346,"lon":171.148891},{"assetId":100034669,"name":"Lake Christabel Hut","status":"OPEN","region":"West Coast","lat":-42.437123,"lon":172.255209},{"assetId":100034797,"name":"Field Hut","status":"OPEN","region":"Wellington/Kapiti","lat":-40.907847,"lon":175.256212},{"assetId":100034798,"name":"Penn Creek Hut","status":"OPEN","region":"Wellington/Kapiti","lat":-40.90156,"lon":175.286365},{"assetId":100034807,"name":"Kawakawa Hut","status":"OPEN","region":"Wairarapa","lat":-41.530787,"lon":175.293495},{"assetId":100034811,"name":"Anderson Memorial Hut","status":"OPEN","region":"Wellington/Kapiti","lat":-40.846474,"lon":175.356018},{"assetId":100034815,"name":"Dundas Hut","status":"OPEN","region":"Wairarapa","lat":-40.71653,"lon":175.466035},{"assetId":100034865,"name":"Myttons Hut","status":"OPEN","region":"Nelson/Tasman","lat":-41.135689,"lon":172.621453},{"assetId":100034872,"name":"Lonely Lake Hut","status":"OPEN","region":"Nelson/Tasman","lat":-40.982631,"lon":172.55802},{"assetId":100034874,"name":"Taipo Hut","status":"OPEN","region":"Nelson/Tasman","lat":-41.397941,"lon":172.313706},{"assetId":100034876,"name":"Helicopter Flat Hut","status":"OPEN","region":"Nelson/Tasman","lat":-41.416058,"lon":172.361187},{"assetId":100034879,"name":"Thor Hut","status":"OPEN","region":"Nelson/Tasman","lat":-41.352927,"lon":172.437691},{"assetId":100034881,"name":"Cecil Kings Hut","status":"OPEN","region":"Nelson/Tasman","lat":-41.466843,"lon":172.479268},{"assetId":100034882,"name":"Kings Creek Hut","status":"OPEN","region":"Nelson/Tasman","lat":-41.465572,"lon":172.481182},{"assetId":100034926,"name":"Devils Creek Hut","status":"OPEN","region":"Marlborough","lat":-41.415862,"lon":173.577079},{"assetId":100034927,"name":"Fosters Hut","status":"OPEN","region":"Marlborough","lat":-41.430984,"lon":173.640323},{"assetId":100034944,"name":"Blue Lake Hut","status":"OPEN","region":"Nelson/Tasman","lat":-42.057953,"lon":172.655727},{"assetId":100035040,"name":"Ministry of Works Historic Hut","status":"OPEN","region":"Nelson/Tasman","lat":-40.843049,"lon":172.241516},{"assetId":100035065,"name":"Flanagans Hut","status":"OPEN","region":"Nelson/Tasman","lat":-41.271613,"lon":172.591155},{"assetId":100035068,"name":"Porters Creek Hut","status":"OPEN","region":"Nelson/Tasman","lat":-41.653573,"lon":172.997262},{"assetId":100035091,"name":"Paske Hut","status":"OPEN","region":"Nelson/Tasman","lat":-42.11157,"lon":172.754478},{"assetId":100035094,"name":"Bobs Hut","status":"OPEN","region":"Nelson/Tasman","lat":-42.224767,"lon":172.486414},{"assetId":100035098,"name":"Black Birch Bivvy","status":"OPEN","region":"Marlborough","lat":-41.717801,"lon":173.820554},{"assetId":100035133,"name":"Mid Trent Hut","status":"OPEN","region":"West Coast","lat":-42.689581,"lon":171.894198},{"assetId":100035199,"name":"Tarn Bivvy","status":"OPEN","region":"Hawke’s Bay","lat":-39.88359,"lon":176.144149},{"assetId":100035203,"name":"Boo Boo Hut","status":"OPEN","region":"West Coast","lat":-42.92835,"lon":171.198287},{"assetId":100035208,"name":"Panekire Hut","status":"OPEN","region":"East Coast","lat":-38.812394,"lon":177.051863},{"assetId":100037806,"name":"Severn Hut ","status":"OPEN","region":"Marlborough","lat":-42.061913,"lon":173.036743},{"assetId":100037933,"name":"Pfeifer Bivvy","status":"OPEN","region":"West Coast","lat":-42.803356,"lon":171.665266},{"assetId":100038197,"name":"Alice Nash Memorial Heritage Lodge","status":"OPEN","region":"Manawatu/Whanganui","lat":-39.954614,"lon":176.017858},{"assetId":100038242,"name":"Arete Hut","status":"OPEN","region":"Wairarapa","lat":-40.748635,"lon":175.437114},{"assetId":100038263,"name":"Purity Hut","status":"OPEN","region":"Manawatu/Whanganui","lat":-39.820284,"lon":176.056288},{"assetId":100038299,"name":"South Ohau Hut","status":"OPEN","region":"Wellington/Kapiti","lat":-40.717854,"lon":175.389856},{"assetId":100038435,"name":"Top Kokatahi Hut","status":"OPEN","region":"West Coast","lat":-42.983052,"lon":171.188963},{"assetId":100038519,"name":"Boar Inn","status":"OPEN","region":"Wellington/Kapiti","lat":-41.345626,"lon":174.969418},{"assetId":100038948,"name":"Roaring Stag Hut","status":"OPEN","region":"Wairarapa","lat":-40.730649,"lon":175.524563},{"assetId":100039015,"name":"Palmer Hut","status":"OPEN","region":"Marlborough","lat":-42.290206,"lon":173.259824},{"assetId":100039016,"name":"Forbes Hut (previously Seymour Hut)","status":"OPEN","region":"Marlborough","lat":-42.221716,"lon":173.400038},{"assetId":100039054,"name":"Waitawheta Hut","status":"OPEN","region":"Bay of Plenty","lat":-37.526245,"lon":175.806288},{"assetId":100039174,"name":"Boulder Forks Hut","status":"OPEN","region":"Marlborough","lat":-41.790019,"lon":173.254305},{"assetId":100039195,"name":"Grassy Flat Hut","status":"OPEN","region":"West Coast","lat":-42.891902,"lon":171.29191},{"assetId":100039234,"name":"North Ohau Hut","status":"OPEN","region":"Wellington/Kapiti","lat":-40.697034,"lon":175.402603},{"assetId":100039299,"name":"Warden Hut","status":"OPEN","region":"Marlborough","lat":-42.278709,"lon":173.438989},{"assetId":100039321,"name":"Elder Hut","status":"OPEN","region":"Wellington/Kapiti","lat":-40.971876,"lon":175.232402},{"assetId":100039340,"name":"Snowgrass Hut ","status":"OPEN","region":"Marlborough","lat":-42.051739,"lon":173.739051},{"assetId":100039734,"name":"Speargrass Hut","status":"OPEN","region":"Nelson/Tasman","lat":-41.852235,"lon":172.751834},{"assetId":100040085,"name":"Waiopehu Hut","status":"OPEN","region":"Wellington/Kapiti","lat":-40.726329,"lon":175.357078},{"assetId":100040089,"name":"Karamea Bend Hut","status":"OPEN","region":"Nelson/Tasman","lat":-41.232846,"lon":172.510996},{"assetId":100040519,"name":"Mangaotane Hut (McMillans)","status":"OPEN","region":"East Coast","lat":-38.099094,"lon":177.774499},{"assetId":100040559,"name":"Sabine Hut","status":"OPEN","region":"Nelson/Tasman","lat":-41.901372,"lon":172.680706},{"assetId":100040566,"name":"Centennial Hut","status":"OPEN","region":"West Coast","lat":-43.511173,"lon":170.233738},{"assetId":100040707,"name":"Tutaekuri Hut","status":"OPEN","region":"West Coast","lat":-42.614291,"lon":171.972026},{"assetId":100040740,"name":"Sylvester Hut","status":"OPEN","region":"Nelson/Tasman","lat":-41.106206,"lon":172.644215},{"assetId":100040768,"name":"Buckland Peak Hut","status":"OPEN","region":"West Coast","lat":-41.874456,"lon":171.629013},{"assetId":100040830,"name":"Waihaha Hut","status":"OPEN","region":"Waikato","lat":-38.695035,"lon":175.600886},{"assetId":100041021,"name":"History of Manson Hut","status":"OPEN","region":"Hawke’s Bay","lat":-39.29709,"lon":176.263117},{"assetId":100041044,"name":"Hauhungaroa Hut","status":"OPEN","region":"Waikato","lat":-38.74936,"lon":175.517993},{"assetId":100041099,"name":"Upper Travers Hut","status":"OPEN","region":"Nelson/Tasman","lat":-42.020288,"lon":172.749853},{"assetId":100041205,"name":"Stan's Hut","status":"OPEN","region":"West Coast","lat":-43.35553,"lon":170.402468},{"assetId":100041250,"name":"Whangaehu Hut (NZAC)","status":"OPEN","region":"Central North Island","lat":-39.283228,"lon":175.587786},{"assetId":100041830,"name":"Totara Flats Hut","status":"OPEN","region":"Wairarapa","lat":-40.932584,"lon":175.403127},{"assetId":100041832,"name":"Tahupo Hut","status":"OPEN","region":"Manawatu/Whanganui","lat":-39.433044,"lon":174.774398},{"assetId":100042187,"name":"Mangamako Hut","status":"OPEN","region":"East Coast","lat":-38.313085,"lon":176.875098},{"assetId":100042282,"name":"Makakoere Hut","status":"OPEN","region":"East Coast","lat":-38.478147,"lon":177.248782},{"assetId":100042461,"name":"Upper Matakuhia Hut","status":"OPEN","region":"East Coast","lat":-38.894181,"lon":176.595494},{"assetId":100042720,"name":"Lower Matakuhia Hut","status":"OPEN","region":"East Coast","lat":-38.934045,"lon":176.598857},{"assetId":100042865,"name":"Awaroa Hut","status":"OPEN","region":"Nelson/Tasman","lat":-40.86526,"lon":173.017598},{"assetId":100043221,"name":"Turkeys Nest Bivvy","status":"OPEN","region":"Marlborough","lat":-41.747573,"lon":173.321129},{"assetId":100043225,"name":"Hornby Bivvy ","status":"OPEN","region":"Marlborough","lat":-42.067257,"lon":173.747402},{"assetId":100043227,"name":"Kanohirua Hut","status":"OPEN","region":"East Coast","lat":-38.602327,"lon":177.023717},{"assetId":100043228,"name":"Manuoha Hut","status":"OPEN","region":"East Coast","lat":-38.656047,"lon":177.120755},{"assetId":100043254,"name":"Wildlife Hut","status":"OPEN","region":"Waikato","lat":-38.376567,"lon":175.451317},{"assetId":100043332,"name":"Syme Hut","status":"OPEN","region":"Taranaki","lat":-39.308454,"lon":174.066328},{"assetId":100043342,"name":"Otane Hut","status":"OPEN","region":"East Coast","lat":-38.443216,"lon":177.171833},{"assetId":100043343,"name":"Taurawharona Hut","status":"OPEN","region":"East Coast","lat":-38.514957,"lon":177.089437},{"assetId":100043530,"name":"Waiharuru Hut","status":"OPEN","region":"East Coast","lat":-38.743629,"lon":177.03335},{"assetId":100043686,"name":"Beebys Hut","status":"OPEN","region":"Nelson/Tasman","lat":-41.71926,"lon":172.931114},{"assetId":100043687,"name":"Bull Paddock Creek Hut","status":"OPEN","region":"Nelson/Tasman","lat":-41.832516,"lon":172.996471},{"assetId":100043688,"name":"Rerekapa Hut","status":"OPEN","region":null,"lat":-38.9343,"lon":174.721036},{"assetId":100043689,"name":"Island Gully Hut","status":"OPEN","region":"Marlborough","lat":-42.14634,"lon":172.826087},{"assetId":100043901,"name":"Belltown Manunui Hut","status":"OPEN","region":"West Coast","lat":-41.349798,"lon":172.236943},{"assetId":100043902,"name":"Dracophyllum Hut","status":"OPEN","region":"Wellington/Kapiti","lat":-40.769647,"lon":175.389413},{"assetId":100044065,"name":"Nardoo Hut","status":"OPEN","region":"Nelson/Tasman","lat":-42.096966,"lon":172.429207},{"assetId":100044541,"name":"Neave Hut","status":"OPEN","region":"West Coast","lat":-43.180371,"lon":170.98242},{"assetId":100044544,"name":"Ten Man Hut","status":"OPEN","region":"Central North Island","lat":-39.016653,"lon":175.447614},{"assetId":100053419,"name":"Glory Bay Whalers Cottage (H)","status":"OPEN","region":null,"lat":-44.319238,"lon":-176.202683},{"assetId":100053869,"name":"Scottys Bivvy","status":"OPEN","region":"West Coast","lat":-42.807222,"lon":171.412862},{"assetId":100054106,"name":"Lake Morgan Hut","status":"OPEN","region":"West Coast","lat":-42.66336,"lon":171.709338},{"assetId":100054107,"name":"Top Crooked Hut","status":"OPEN","region":"West Coast","lat":-42.704352,"lon":171.691028},{"assetId":100054136,"name":"Frew Saddle Bivvy","status":"OPEN","region":"West Coast","lat":-43.078034,"lon":171.092061},{"assetId":100054137,"name":"Sir Robert Hut","status":"OPEN","region":"West Coast","lat":-43.05862,"lon":171.155192},{"assetId":100054219,"name":"Explorer Hut","status":"OPEN","region":"West Coast","lat":-43.003023,"lon":170.93429},{"assetId":100054509,"name":"Frisco Hut","status":"OPEN","region":"West Coast","lat":-43.031712,"lon":171.11089},{"assetId":100054510,"name":"Pinnacle Bivvy","status":"OPEN","region":"West Coast","lat":-42.938226,"lon":171.178794},{"assetId":100054572,"name":"County Stream Hut","status":"OPEN","region":"West Coast","lat":-43.158146,"lon":170.850327},{"assetId":100054573,"name":"Serpentine Hut","status":"OPEN","region":"West Coast","lat":-43.013682,"lon":171.079931},{"assetId":100054583,"name":"Manson Hut","status":"OPEN","region":"Hawke’s Bay","lat":-39.296221,"lon":176.260051},{"assetId":100054620,"name":"Griffin Creek Hut","status":"OPEN","region":"West Coast","lat":-42.797792,"lon":171.382545},{"assetId":100054630,"name":"Mangaturutu Hut","status":"OPEN","region":"Hawke’s Bay","lat":-39.219282,"lon":176.32979},{"assetId":100054631,"name":"Harkness Hut ","status":"OPEN","region":"Hawke’s Bay","lat":-39.195063,"lon":176.238337},{"assetId":100054632,"name":"Mangatainoka Hut","status":"OPEN","region":"Hawke’s Bay","lat":-39.144871,"lon":176.293216},{"assetId":100054634,"name":"Ballard Hut","status":"OPEN","region":"Hawke’s Bay","lat":-39.238,"lon":176.36985},{"assetId":100054635,"name":"Manson Bivvy","status":"OPEN","region":"Hawke’s Bay","lat":-39.29713,"lon":176.288555},{"assetId":100054640,"name":"Cattle Creek Hut","status":"OPEN","region":"Manawatu/Whanganui","lat":-40.065896,"lon":176.063717},{"assetId":100054641,"name":"Longview Hut","status":"OPEN","region":"Hawke’s Bay","lat":-39.951331,"lon":176.122357},{"assetId":100054666,"name":"Rocky Creek Hut","status":"OPEN","region":"West Coast","lat":-42.78648,"lon":171.409419},{"assetId":100054668,"name":"Kiwi Flat Hut","status":"OPEN","region":"West Coast","lat":-43.13543,"lon":170.746614},{"assetId":100054669,"name":"Scamper Torrent Hut","status":"OPEN","region":"West Coast","lat":-43.153744,"lon":170.737418},{"assetId":100054670,"name":"Ivory Lake Hut","status":"OPEN","region":"West Coast","lat":-43.134988,"lon":170.912614},{"assetId":100054672,"name":"Top Waitaha Hut","status":"OPEN","region":"West Coast","lat":-43.131386,"lon":170.876431},{"assetId":100054748,"name":"Gerhardt Spur Bivvy","status":"OPEN","region":"West Coast","lat":-42.972985,"lon":171.096343},{"assetId":100054927,"name":"Happy Daze Hut","status":"OPEN","region":"Hawke’s Bay","lat":-39.997101,"lon":176.141542},{"assetId":100054928,"name":"Wakelings Hut","status":"OPEN","region":"Manawatu/Whanganui","lat":-39.754604,"lon":176.129716},{"assetId":100054931,"name":"Ikawatea Forks Hut","status":"OPEN","region":"Hawke’s Bay","lat":-39.590129,"lon":176.197529},{"assetId":100054932,"name":"Otukota Hut","status":"OPEN","region":"Manawatu/Whanganui","lat":-39.703643,"lon":176.086186},{"assetId":100054961,"name":"Nikau Flat Hut","status":"OPEN","region":"East Coast","lat":-38.355427,"lon":177.290428},{"assetId":100054965,"name":"Te Waiti Hut","status":"OPEN","region":"East Coast","lat":-38.167716,"lon":177.403012},{"assetId":100055143,"name":"Tawhiwhi Hut","status":"OPEN","region":"East Coast","lat":-38.512297,"lon":176.989415},{"assetId":100055145,"name":"Ngahiramai Hut","status":"OPEN","region":"East Coast","lat":-38.492316,"lon":176.977595},{"assetId":100055146,"name":"Waiawa Hut","status":"OPEN","region":"East Coast","lat":-38.565089,"lon":177.047277},{"assetId":100055177,"name":"Makino Hut","status":"OPEN","region":"Hawke’s Bay","lat":-39.189707,"lon":176.407649},{"assetId":100055180,"name":"Black Birch Bivoauc","status":"OPEN","region":"Hawke’s Bay","lat":-39.301774,"lon":176.438194},{"assetId":100055181,"name":"Studholme Saddle Bivvy","status":"OPEN","region":"Hawke’s Bay","lat":-39.301413,"lon":176.363988},{"assetId":100055182,"name":"Kiwi Saddle Hut","status":"OPEN","region":"Hawke’s Bay","lat":-39.332994,"lon":176.321067},{"assetId":100055186,"name":"Gold Creek Hut","status":"OPEN","region":"Manawatu/Whanganui","lat":-39.761826,"lon":176.197177},{"assetId":100055336,"name":"Waiopaoa Hut","status":"OPEN","region":"East Coast","lat":-38.808925,"lon":176.993925},{"assetId":100055339,"name":"Okui Hut","status":"OPEN","region":"East Coast","lat":-38.525991,"lon":176.788651},{"assetId":100055373,"name":"Dominie Hut","status":"OPEN","region":"Hawke’s Bay","lat":-39.280688,"lon":176.394301},{"assetId":100055374,"name":"Omarukokere Bivvy","status":"OPEN","region":"Hawke’s Bay","lat":-39.249429,"lon":176.291896},{"assetId":100055378,"name":"Tussock Hut","status":"OPEN","region":"Hawke’s Bay","lat":-39.165975,"lon":176.214969},{"assetId":100055415,"name":"Rocks Ahead Hut","status":"OPEN","region":"Hawke’s Bay","lat":-39.275427,"lon":176.296614},{"assetId":100055416,"name":"Venison Tops Hut (Tira Lodge)","status":"OPEN","region":"Hawke’s Bay","lat":-39.246789,"lon":176.320758},{"assetId":100055421,"name":"Sunrise Hut","status":"OPEN","region":"Hawke’s Bay","lat":-39.78759,"lon":176.167862},{"assetId":100055422,"name":"Stanfield Hut","status":"OPEN","region":"Hawke’s Bay","lat":-40.08812,"lon":176.047252},{"assetId":100055423,"name":"Dead Dog Hut","status":"OPEN","region":"Hawke’s Bay","lat":-39.578299,"lon":176.297149},{"assetId":100055427,"name":"Hinerua Hut","status":"OPEN","region":"Hawke’s Bay","lat":-39.861774,"lon":176.169614},{"assetId":100055428,"name":"Waikamaka Hut","status":"OPEN","region":"Manawatu/Whanganui","lat":-39.811798,"lon":176.134249},{"assetId":100055429,"name":"Upper Makaroro Hut","status":"OPEN","region":"Hawke’s Bay","lat":-39.680334,"lon":176.227394},{"assetId":100055431,"name":"Ruahine Hut","status":"OPEN","region":"Hawke’s Bay","lat":-39.556791,"lon":176.324848},{"assetId":100055432,"name":"Rockslide Hut","status":"OPEN","region":"Hawke’s Bay","lat":-39.615313,"lon":176.225604},{"assetId":100055433,"name":"Dianes Hut","status":"OPEN","region":"Hawke’s Bay","lat":-39.541729,"lon":176.283747},{"assetId":100055448,"name":"Healey Creek Hut","status":"OPEN","region":"West Coast","lat":-43.050092,"lon":170.911064},{"assetId":100055449,"name":"Top Olderog Bivvy ","status":"OPEN","region":"West Coast","lat":-42.821493,"lon":171.340335},{"assetId":100055450,"name":"Newton Creek Hut","status":"OPEN","region":"West Coast","lat":-42.84094,"lon":171.377736},{"assetId":100055463,"name":"Jacko Flat Hut","status":"OPEN","region":"West Coast","lat":-42.707924,"lon":171.63073},{"assetId":100055565,"name":"Mullins Hut","status":"OPEN","region":"West Coast","lat":-42.995873,"lon":171.12352},{"assetId":100055584,"name":"Nolans Hut","status":"OPEN","region":"West Coast","lat":-43.349434,"lon":170.481692},{"assetId":100055595,"name":"Lupton Hut","status":"OPEN","region":"Central North Island","lat":-39.332785,"lon":175.522224},{"assetId":100055712,"name":"McKinnon Hut","status":"OPEN","region":"Manawatu/Whanganui","lat":-39.781638,"lon":176.094749},{"assetId":100055713,"name":"Howletts Hut","status":"OPEN","region":"Hawke’s Bay","lat":-39.904357,"lon":176.12635},{"assetId":100055715,"name":"Top Gorge Hut","status":"OPEN","region":"Manawatu/Whanganui","lat":-39.96725,"lon":176.104504},{"assetId":100055798,"name":"Central Waiau Hut","status":"OPEN","region":"East Coast","lat":-38.768085,"lon":176.847071},{"assetId":100055906,"name":"Cascade Hut","status":"OPEN","region":"Central North Island","lat":-39.057951,"lon":176.111675},{"assetId":100056032,"name":"Koaunui Hut","status":"OPEN","region":"East Coast","lat":-38.342519,"lon":177.179673},{"assetId":100056127,"name":"Mangakahika Hut","status":"OPEN","region":"East Coast","lat":-38.806595,"lon":176.772775},{"assetId":100056129,"name":"Mangamate Hut","status":"OPEN","region":"East Coast","lat":-38.75563,"lon":176.689101},{"assetId":100056174,"name":"Daly's Clearing Hut","status":"OPEN","region":"Bay of Plenty","lat":-37.484582,"lon":175.762991},{"assetId":100056200,"name":"Boyd Hut","status":"OPEN","region":"Central North Island","lat":-39.155356,"lon":176.168575},{"assetId":100056212,"name":"Mangaehuehu Hut","status":"OPEN","region":"Central North Island","lat":-39.343089,"lon":175.55},{"assetId":100056231,"name":"Kahunui Hut","status":"OPEN","region":"East Coast","lat":-38.479639,"lon":177.276793},{"assetId":100056292,"name":"Whakapapaiti Hut","status":"OPEN","region":"Central North Island","lat":-39.23758,"lon":175.517871},{"assetId":100056298,"name":"Waipakihi Hut","status":"OPEN","region":"Central North Island","lat":-39.123882,"lon":175.95826},{"assetId":100056434,"name":"Waikare Junction Hut","status":"OPEN","region":"East Coast","lat":-38.390997,"lon":177.00285},{"assetId":100056522,"name":"Rangiwahia Hut","status":"OPEN","region":"Manawatu/Whanganui","lat":-39.890684,"lon":176.018312},{"assetId":100056525,"name":"Piripiri Hut","status":"OPEN","region":"Manawatu/Whanganui","lat":-40.039137,"lon":176.017013},{"assetId":100056527,"name":"Smiths Stream Hut","status":"OPEN","region":"Hawke’s Bay","lat":-39.84916,"lon":176.170401},{"assetId":100056529,"name":"Ruahine Corner Hut","status":"OPEN","region":"Manawatu/Whanganui","lat":-39.631253,"lon":176.171814},{"assetId":100056619,"name":"Upper Te Hoe Hut","status":"OPEN","region":"East Coast","lat":-38.839743,"lon":176.720028},{"assetId":100056832,"name":"Te Rereatukahia Hut ","status":"OPEN","region":"Bay of Plenty","lat":-37.586052,"lon":175.830682},{"assetId":100056871,"name":"Rogers Hut (Te Wairoa)","status":"OPEN","region":"East Coast","lat":-38.752778,"lon":176.789366},{"assetId":100056872,"name":"Moerangi Hut","status":"OPEN","region":"East Coast","lat":-38.74783,"lon":176.72369},{"assetId":100056882,"name":"Bog Inn Hut","status":"OPEN","region":"Waikato","lat":-38.583166,"lon":175.628789},{"assetId":100056979,"name":"Motutapere Hut","status":"OPEN","region":"Bay of Plenty","lat":-37.622024,"lon":175.840758},{"assetId":100057084,"name":"Kauritatahi Hut","status":"OPEN","region":"Bay of Plenty","lat":-37.665087,"lon":175.861193},{"assetId":100057086,"name":"Mangamuka Hut","status":"OPEN","region":"Bay of Plenty","lat":-37.788102,"lon":175.895668},{"assetId":100057250,"name":"Central Whirinaki Hut","status":"OPEN","region":"East Coast","lat":-38.770799,"lon":176.652995},{"assetId":100057270,"name":"Leitch's Hut","status":"OPEN","region":"Waikato","lat":-38.431394,"lon":174.777513},{"assetId":100059343,"name":"Waikiti Hut","status":"OPEN","region":"West Coast","lat":-42.614467,"lon":171.853951},{"assetId":100059346,"name":"Top Trent Hut/Lagoon Hut","status":"OPEN","region":"West Coast","lat":-42.699726,"lon":171.832959},{"assetId":100059348,"name":"Mid Taipo Hut","status":"OPEN","region":"West Coast","lat":-42.850063,"lon":171.443304},{"assetId":100059349,"name":"Dillons Homestead Hut","status":"OPEN","region":"West Coast","lat":-42.783902,"lon":171.485589},{"assetId":100059406,"name":"Ada Pass Hut","status":"OPEN","region":"West Coast","lat":-42.304374,"lon":172.457329},{"assetId":100059409,"name":"Lake Stream Hut","status":"OPEN","region":"West Coast","lat":-42.24777,"lon":172.132114},{"assetId":100059503,"name":"Julia Hut (old)","status":"OPEN","region":"West Coast","lat":-42.897434,"lon":171.425235},{"assetId":100059504,"name":"Julia Hut","status":"OPEN","region":"West Coast","lat":-42.897417,"lon":171.424011},{"assetId":100059506,"name":"Wilkinson Hut","status":"OPEN","region":"West Coast","lat":-43.157081,"lon":170.989336},{"assetId":100059757,"name":"Burn Hut","status":"OPEN","region":"Wellington/Kapiti","lat":-40.620373,"lon":175.528573},{"assetId":100059788,"name":"Wharepapa Hut","status":"OPEN","region":"Wairarapa","lat":-41.325922,"lon":175.075273},{"assetId":100059887,"name":"Middy Creek Hut","status":"OPEN","region":"Marlborough","lat":-41.384112,"lon":173.392697},{"assetId":100059888,"name":"Roebuck Hut","status":"OPEN","region":"Marlborough","lat":-41.411826,"lon":173.357483},{"assetId":100059905,"name":"Downies Hut","status":"OPEN","region":"Nelson/Tasman","lat":-42.133175,"lon":172.524725},{"assetId":100059906,"name":"McConchies Hut","status":"OPEN","region":"Nelson/Tasman","lat":-41.587588,"lon":172.363291},{"assetId":100059907,"name":"Lake Matiri Hut","status":"OPEN","region":"Nelson/Tasman","lat":-41.656017,"lon":172.330286},{"assetId":100059908,"name":"D'Urville Hut","status":"OPEN","region":"Nelson/Tasman","lat":-41.905763,"lon":172.645719},{"assetId":100059963,"name":"Lake Alexander Hut","status":"OPEN","region":"Marlborough","lat":-41.74952,"lon":173.661833},{"assetId":100059964,"name":"Omaka Bivvy","status":"OPEN","region":"Marlborough","lat":-41.712178,"lon":173.75116},{"assetId":100059969,"name":"Lower Goulter Hut","status":"OPEN","region":"Marlborough","lat":-41.612573,"lon":173.17588},{"assetId":100059970,"name":"Mid Goulter Hut","status":"OPEN","region":"Marlborough","lat":-41.580526,"lon":173.235499},{"assetId":100059971,"name":"Siberia Hut","status":"OPEN","region":"Marlborough","lat":-41.88022,"lon":173.074772},{"assetId":100060051,"name":"Pararaki Hut","status":"OPEN","region":"Wairarapa","lat":-41.502708,"lon":175.303705},{"assetId":100060063,"name":"Cobb Hut","status":"OPEN","region":"Nelson/Tasman","lat":-41.055953,"lon":172.525053},{"assetId":100060064,"name":"Tent Camp","status":"OPEN","region":"Nelson/Tasman","lat":-41.066214,"lon":172.53643},{"assetId":100060066,"name":"Waingaro Forks Hut","status":"OPEN","region":"Nelson/Tasman","lat":-41.045508,"lon":172.674217},{"assetId":100060104,"name":"John Reid Hut","status":"OPEN","region":"Nelson/Tasman","lat":-41.402231,"lon":172.549578},{"assetId":100060112,"name":"Castle Rock Hut","status":"OPEN","region":"Nelson/Tasman","lat":-40.961786,"lon":172.953678},{"assetId":100060119,"name":"Kiwi Saddle Hut","status":"OPEN","region":"Nelson/Tasman","lat":-41.407172,"lon":172.494377},{"assetId":100060120,"name":"Splugeons Rock Shelter","status":"OPEN","region":"Nelson/Tasman","lat":-41.205492,"lon":172.608277},{"assetId":100060122,"name":"Balloon Hut","status":"OPEN","region":"Nelson/Tasman","lat":-41.169084,"lon":172.622322},{"assetId":100060127,"name":"Flora Hut","status":"OPEN","region":"Nelson/Tasman","lat":-41.182476,"lon":172.730175},{"assetId":100060140,"name":"Larrikin Creek Hut","status":"OPEN","region":"Nelson/Tasman","lat":-41.559781,"lon":172.315966},{"assetId":100060141,"name":"Begley Hut","status":"OPEN","region":"Nelson/Tasman","lat":-42.034003,"lon":172.799574},{"assetId":100060142,"name":"Burn Creek Hut","status":"OPEN","region":"Nelson/Tasman","lat":-42.156507,"lon":172.449249},{"assetId":100060145,"name":"Coldwater Hut","status":"OPEN","region":"Nelson/Tasman","lat":-41.870353,"lon":172.81704},{"assetId":100060146,"name":"Lakehead Hut","status":"OPEN","region":"Nelson/Tasman","lat":-41.875648,"lon":172.821978},{"assetId":100060197,"name":"Johnson Hut","status":"OPEN","region":"West Coast","lat":-41.467423,"lon":172.276689},{"assetId":100060357,"name":"Castle Rocks Hut","status":"OPEN","region":"West Coast","lat":-43.453687,"lon":170.165914},{"assetId":100060545,"name":"Goat Creek Hut","status":"OPEN","region":"West Coast","lat":-41.605872,"lon":172.198879},{"assetId":100060610,"name":"Historic Cedar Flat Hut","status":"OPEN","region":"West Coast","lat":-42.962841,"lon":171.144326},{"assetId":100060751,"name":"OGR - Mokihinui Forks Hut","status":"OPEN","region":null,"lat":-41.548182,"lon":172.178657},{"assetId":100060763,"name":"North Mangahao Bivvy","status":"OPEN","region":"Wellington/Kapiti","lat":-40.542412,"lon":175.60719},{"assetId":100060768,"name":"Sutherlands Hut","status":"OPEN","region":"Wairarapa","lat":-41.437241,"lon":175.331321},{"assetId":100060785,"name":"Cone Hut","status":"OPEN","region":"Wairarapa","lat":-40.987586,"lon":175.344776},{"assetId":100060985,"name":"Mt Rintoul Hut","status":"OPEN","region":"Marlborough","lat":-41.519224,"lon":173.220619},{"assetId":100060986,"name":"Tarn Hut","status":"OPEN","region":"Marlborough","lat":-41.55183,"lon":173.168029},{"assetId":100060987,"name":"Mt Fell Hut","status":"OPEN","region":"Marlborough","lat":-41.458975,"lon":173.415671},{"assetId":100060988,"name":"Lost Stream Bivvy","status":"OPEN","region":"Marlborough","lat":-41.865533,"lon":173.024689},{"assetId":100061023,"name":"Waingongoro Hut","status":"OPEN","region":"Taranaki","lat":-39.318729,"lon":174.110391},{"assetId":100061031,"name":"Downes Hut","status":"OPEN","region":"Manawatu/Whanganui","lat":-39.726423,"lon":175.131593},{"assetId":100061113,"name":"Riordans Hut","status":"OPEN","region":"Nelson/Tasman","lat":-41.045465,"lon":172.742741},{"assetId":100061116,"name":"Trilobite Hut","status":"OPEN","region":"Nelson/Tasman","lat":-41.130205,"lon":172.608809},{"assetId":100061135,"name":"Whariwharangi Hut","status":"OPEN","region":"Nelson/Tasman","lat":-40.788984,"lon":172.974623},{"assetId":100061147,"name":"Hacket Hut","status":"OPEN","region":"Nelson/Tasman","lat":-41.416518,"lon":173.244538},{"assetId":100061149,"name":"Slaty Hut","status":"OPEN","region":"Nelson/Tasman","lat":-41.485492,"lon":173.278433},{"assetId":100061168,"name":"Roaring Lion Hut","status":"OPEN","region":"Nelson/Tasman","lat":-41.197875,"lon":172.433617},{"assetId":100061174,"name":"Trevor Carter Hut","status":"OPEN","region":"Nelson/Tasman","lat":-41.39803,"lon":172.390397},{"assetId":100061176,"name":"Hunters Hut","status":"OPEN","region":"Nelson/Tasman","lat":-41.599556,"lon":173.002928},{"assetId":100061254,"name":"Captains Creek Hut","status":"OPEN","region":"Marlborough","lat":-41.37424,"lon":173.435257},{"assetId":100061255,"name":"Rocks Hut","status":"OPEN","region":"Marlborough","lat":-41.367193,"lon":173.354919},{"assetId":100061260,"name":"Puteore Hut","status":"OPEN","region":"Manawatu/Whanganui","lat":-39.369334,"lon":174.789754},{"assetId":100061302,"name":"Upper D'Urville Hut","status":"OPEN","region":"Nelson/Tasman","lat":-42.108211,"lon":172.605865},{"assetId":100061350,"name":"Renata Hut ","status":"OPEN","region":"Wellington/Kapiti","lat":-40.968326,"lon":175.172604},{"assetId":100061375,"name":"Aokaparangi Hut","status":"OPEN","region":"Wellington/Kapiti","lat":-40.891873,"lon":175.360323},{"assetId":100061393,"name":"Mid Waiohine Hut","status":"OPEN","region":"Wairarapa","lat":-40.874157,"lon":175.381718},{"assetId":100061503,"name":"Cupola Hut","status":"OPEN","region":"Nelson/Tasman","lat":-41.971811,"lon":172.732832},{"assetId":100061505,"name":"Hopeless Hut","status":"OPEN","region":"Nelson/Tasman","lat":-41.930388,"lon":172.756489},{"assetId":100061543,"name":"Lake McRae Hut","status":"OPEN","region":"Marlborough","lat":-42.187545,"lon":173.313343},{"assetId":100061608,"name":"Blue Mountain Hut","status":"OPEN","region":"Marlborough","lat":-41.862701,"lon":173.32409},{"assetId":100061609,"name":"Silverstream Bivvy","status":"OPEN","region":"Marlborough","lat":-41.793238,"lon":173.042306},{"assetId":100061610,"name":"Mid Silverstream Hut","status":"OPEN","region":"Marlborough","lat":-41.825473,"lon":173.046963},{"assetId":100061612,"name":"Isolation Hut","status":"CLSD","region":"Marlborough","lat":-41.899367,"lon":173.984744},{"assetId":100061613,"name":"Zoo Hut","status":"CLSD","region":"Marlborough","lat":-41.923418,"lon":173.925996},{"assetId":100061617,"name":"Jam Hut","status":"OPEN","region":"Marlborough","lat":-42.095482,"lon":173.715083},{"assetId":100061740,"name":"Starveall Hut","status":"OPEN","region":"Nelson/Tasman","lat":-41.458609,"lon":173.240733},{"assetId":100061741,"name":"Top Wairoa Hut","status":"OPEN","region":"Nelson/Tasman","lat":-41.610999,"lon":173.074508},{"assetId":100061742,"name":"Mid Wairoa Hut","status":"OPEN","region":"Nelson/Tasman","lat":-41.570687,"lon":173.12154},{"assetId":100061762,"name":"Tiraumea Hut","status":"OPEN","region":"Nelson/Tasman","lat":-41.907972,"lon":172.581996},{"assetId":100061789,"name":"Haycocks Bivvy","status":"OPEN","region":"Marlborough","lat":-42.121883,"lon":173.70004},{"assetId":100061893,"name":"Mid Styx Hut","status":"OPEN","region":"West Coast","lat":-42.895699,"lon":171.245264},{"assetId":100061936,"name":"Carroll Hut","status":"OPEN","region":"West Coast","lat":-42.791082,"lon":171.552638},{"assetId":100061940,"name":"Almer Hut","status":"OPEN","region":"West Coast","lat":-43.475436,"lon":170.20817},{"assetId":100062022,"name":"Mikonui Flat Hut","status":"OPEN","region":"West Coast","lat":-43.023447,"lon":170.874867},{"assetId":100062043,"name":"Jim's Flat Hut","status":"OPEN","region":"West Coast","lat":-42.434476,"lon":171.730543},{"assetId":100062050,"name":"Croesus Top Hut","status":"OPEN","region":"West Coast","lat":-42.293426,"lon":171.391853},{"assetId":100062051,"name":"Mudflats Hut","status":"OPEN","region":"West Coast","lat":-42.875015,"lon":171.368273},{"assetId":100062207,"name":"Cedar Flat Hut","status":"OPEN","region":"West Coast","lat":-42.962725,"lon":171.143814},{"assetId":100062208,"name":"Rapid Creek Hut","status":"OPEN","region":"West Coast","lat":-43.011427,"lon":171.011176},{"assetId":100062277,"name":"Price Flat Hut","status":"OPEN","region":"West Coast","lat":-43.110564,"lon":171.00685},{"assetId":100062278,"name":"Poet Hut","status":"OPEN","region":"West Coast","lat":-43.035637,"lon":171.152211},{"assetId":100062301,"name":"Top Toaroha Hut","status":"OPEN","region":"West Coast","lat":-43.013405,"lon":171.153933},{"assetId":100062315,"name":"Top Robinson Hut","status":"OPEN","region":"West Coast","lat":-42.478185,"lon":172.179414},{"assetId":100062481,"name":"Historic Price Flat Hut","status":"OPEN","region":"West Coast","lat":-43.106544,"lon":171.006059},{"assetId":100062499,"name":"Harman Hut","status":"OPEN","region":"West Coast","lat":-42.919359,"lon":171.32177},{"assetId":100062710,"name":"Kirwans Hut","status":"OPEN","region":"West Coast","lat":-42.103085,"lon":172.009896},{"assetId":100062767,"name":"Kapakapanui Hut","status":"OPEN","region":"Wellington/Kapiti","lat":-40.9169,"lon":175.155482},{"assetId":100062898,"name":"Big River Hut","status":"OPEN","region":"West Coast","lat":-42.244637,"lon":171.89279},{"assetId":100062929,"name":"Herepai Hut","status":"OPEN","region":"Wairarapa","lat":-40.692155,"lon":175.523156},{"assetId":100062930,"name":"Waiorongomai Hut","status":"OPEN","region":"Wairarapa","lat":-41.25663,"lon":175.106569},{"assetId":100062969,"name":"Mitre Flats Hut","status":"OPEN","region":"Wairarapa","lat":-40.830666,"lon":175.478467},{"assetId":100062970,"name":"McGregor Bivvy","status":"OPEN","region":"Wairarapa","lat":-40.832098,"lon":175.410925},{"assetId":100063028,"name":"Mid King Bivvy","status":"OPEN","region":"Wairarapa","lat":-40.827462,"lon":175.448406},{"assetId":100063046,"name":"Neill Forks Hut","status":"OPEN","region":"Wairarapa","lat":-40.932698,"lon":175.356147},{"assetId":100063125,"name":"Tutuwai Hut","status":"OPEN","region":"Wairarapa","lat":-41.010152,"lon":175.325088},{"assetId":100063172,"name":"Mangatoetoe Hut","status":"OPEN","region":"Wairarapa","lat":-41.57003,"lon":175.271676},{"assetId":100063183,"name":"Mid Robinson Hut","status":"OPEN","region":"West Coast","lat":-42.499411,"lon":172.084148},{"assetId":100063238,"name":"Carkeek Hut","status":"OPEN","region":"Wairarapa","lat":-40.790221,"lon":175.396302},{"assetId":100063239,"name":"Cow Creek Hut","status":"OPEN","region":"Wairarapa","lat":-40.776642,"lon":175.490948},{"assetId":100063240,"name":"Dorset Ridge Hut","status":"OPEN","region":"Wairarapa","lat":-40.807518,"lon":175.42247},{"assetId":100063241,"name":"Blue Range Hut","status":"OPEN","region":"Wairarapa","lat":-40.793307,"lon":175.518629},{"assetId":100063244,"name":"Tauanui Hut","status":"OPEN","region":"Wairarapa","lat":-41.387748,"lon":175.305034},{"assetId":100063308,"name":"Maungahuka Hut","status":"OPEN","region":"Wairarapa","lat":-40.912271,"lon":175.333966},{"assetId":100063366,"name":"Parawai Lodge","status":"OPEN","region":"Wellington/Kapiti","lat":-40.873387,"lon":175.232056},{"assetId":100063368,"name":"Te Matawai Hut","status":"OPEN","region":"Wellington/Kapiti","lat":-40.737542,"lon":175.398661},{"assetId":100063387,"name":"Arete Forks Hut","status":"OPEN","region":"Wairarapa","lat":-40.765177,"lon":175.45556},{"assetId":100063395,"name":"Cattle Ridge Hut","status":"OPEN","region":"Wairarapa","lat":-40.729929,"lon":175.503448},{"assetId":100063409,"name":"Mungo Hut","status":"OPEN","region":"West Coast","lat":-43.02602,"lon":171.196254},{"assetId":100063534,"name":"Maketawa Hut","status":"OPEN","region":"Taranaki","lat":-39.281641,"lon":174.099034},{"assetId":100063550,"name":"Trains Hut","status":"OPEN","region":"Manawatu/Whanganui","lat":-39.479553,"lon":174.730167},{"assetId":100063698,"name":"Waiaua Gorge Hut","status":"OPEN","region":"Taranaki","lat":-39.325185,"lon":174.003702},{"assetId":100063733,"name":"Fidgit Bivvy","status":"OPEN","region":"Marlborough","lat":-42.176724,"lon":173.62986},{"assetId":100063734,"name":"Dubious Bivvy","status":"OPEN","region":"Marlborough","lat":-42.2169,"lon":173.562591},{"assetId":100063735,"name":"Mt Fyffe Hut","status":"OPEN","region":"Marlborough","lat":-42.323999,"lon":173.5934},{"assetId":100063738,"name":"Kowhai Hut","status":"OPEN","region":"Marlborough","lat":-42.298396,"lon":173.594846},{"assetId":100063990,"name":"Lake Chalice Hut","status":"OPEN","region":"Marlborough","lat":-41.567632,"lon":173.319649},{"assetId":100063991,"name":"Old Man Hut","status":"OPEN","region":"Marlborough","lat":-41.525224,"lon":173.270884},{"assetId":100063992,"name":"Richmond Saddle Hut","status":"OPEN","region":"Marlborough","lat":-41.473851,"lon":173.383106},{"assetId":100064007,"name":"Greigs Hut","status":"OPEN","region":"Marlborough","lat":-41.836981,"lon":173.104831},{"assetId":100064078,"name":"Stone Hut","status":"OPEN","region":"Nelson/Tasman","lat":-41.420789,"lon":172.43932},{"assetId":100064126,"name":"Mount Misery Hut","status":"OPEN","region":"Nelson/Tasman","lat":-41.934137,"lon":172.670531},{"assetId":100064155,"name":"West Sabine Hut","status":"OPEN","region":"Nelson/Tasman","lat":-42.007795,"lon":172.683954},{"assetId":100064165,"name":"George Lyon Hut","status":"OPEN","region":"Nelson/Tasman","lat":-42.046982,"lon":172.605047},{"assetId":100064171,"name":"Connors Creek Hut","status":"CLSD","region":"Nelson/Tasman","lat":-42.005354,"lon":172.885244},{"assetId":100064214,"name":"Top Leatham Hut","status":"OPEN","region":"Marlborough","lat":-41.973201,"lon":173.082001},{"assetId":100064215,"name":"Bottom Gordon Hut","status":"OPEN","region":"Marlborough","lat":-41.92658,"lon":173.13981},{"assetId":100064235,"name":"Fishtail Hut","status":"OPEN","region":"Marlborough","lat":-41.446082,"lon":173.48962},{"assetId":100064236,"name":"Hidden Hut","status":"OPEN","region":"Marlborough","lat":-41.739805,"lon":173.295848},{"assetId":100064237,"name":"Penk Hut","status":"OPEN","region":"Marlborough","lat":-41.786961,"lon":173.682135},{"assetId":100064238,"name":"Saxton Hut","status":"OPEN","region":"Marlborough","lat":-42.055289,"lon":173.151645},{"assetId":100064242,"name":"Goose Flat Hut","status":"OPEN","region":"Marlborough","lat":-42.151779,"lon":173.550552},{"assetId":100064243,"name":"Limestone Hut","status":"OPEN","region":"Marlborough","lat":-42.244927,"lon":173.514731},{"assetId":100064244,"name":"Kahutara Bivvy","status":"OPEN","region":"Marlborough","lat":-42.321688,"lon":173.406703},{"assetId":100064245,"name":"Alfred Hut","status":"OPEN","region":"Marlborough","lat":-42.325085,"lon":173.348833},{"assetId":100064246,"name":"Palmer Bivvy","status":"OPEN","region":"Marlborough","lat":-42.336199,"lon":173.256554},{"assetId":100064247,"name":"Hapuku Hut","status":"OPEN","region":"Marlborough","lat":-42.27243,"lon":173.651524},{"assetId":100064257,"name":"Kahui Hut","status":"OPEN","region":"Taranaki","lat":-39.294248,"lon":174.014578},{"assetId":100064268,"name":"Branch Bivvy","status":"OPEN","region":"Marlborough","lat":-41.965083,"lon":173.034998},{"assetId":100064269,"name":"Bottom Misery Hut","status":"OPEN","region":"Marlborough","lat":-41.911937,"lon":173.049438},{"assetId":100064270,"name":"Top Misery Hut","status":"OPEN","region":"Marlborough","lat":-41.884477,"lon":172.994335},{"assetId":100064281,"name":"Salisbury Lodge","status":"OPEN","region":"Nelson/Tasman","lat":-41.185896,"lon":172.648816},{"assetId":100064302,"name":"Anatoki Forks Hut","status":"OPEN","region":"Nelson/Tasman","lat":-40.939249,"lon":172.608334},{"assetId":100064304,"name":"Boulder Lake Hut","status":"OPEN","region":"Nelson/Tasman","lat":-40.900103,"lon":172.578741},{"assetId":100064308,"name":"Lees Creek Hut","status":"OPEN","region":"Nelson/Tasman","lat":-41.943253,"lon":172.974738},{"assetId":100064309,"name":"Branch Creek Hut","status":"OPEN","region":"Nelson/Tasman","lat":-41.52365,"lon":172.511521},{"assetId":100064317,"name":"Wainui Hut","status":"OPEN","region":"Nelson/Tasman","lat":-40.914438,"lon":172.920378},{"assetId":100064345,"name":"East Matakitaki Hut","status":"OPEN","region":"Nelson/Tasman","lat":-42.194457,"lon":172.556883},{"assetId":100064347,"name":"Mole Hut","status":"OPEN","region":"Nelson/Tasman","lat":-41.961623,"lon":172.571702},{"assetId":100064348,"name":"Hurricane Hut","status":"OPEN","region":"Nelson/Tasman","lat":-41.506772,"lon":172.382668},{"assetId":100064355,"name":"Morgan Hut","status":"OPEN","region":"Nelson/Tasman","lat":-41.982559,"lon":172.630071},{"assetId":100064358,"name":"Bushline Hut","status":"OPEN","region":"Nelson/Tasman","lat":-41.836731,"lon":172.823098},{"assetId":100064369,"name":"Gouland Downs Hut","status":"OPEN","region":"Nelson/Tasman","lat":-40.8906,"lon":172.353317},{"assetId":100064371,"name":"Awapoto Hut","status":"OPEN","region":"Nelson/Tasman","lat":-40.862822,"lon":172.938832},{"assetId":100064391,"name":"Washpool Hut","status":"OPEN","region":"Wairarapa","lat":-41.477158,"lon":175.292368},{"assetId":100064479,"name":"Waterfall Hut","status":"OPEN","region":"Manawatu/Whanganui","lat":-39.828988,"lon":176.114061},{"assetId":100064495,"name":"Triplex Hut","status":"OPEN","region":"Hawke’s Bay","lat":-39.793833,"lon":176.197691},{"assetId":100065092,"name":"Browning Hut","status":"OPEN","region":"Nelson/Tasman","lat":-41.413724,"lon":173.276834},{"assetId":100065122,"name":"Ellis Hut","status":"OPEN","region":"Hawke’s Bay","lat":-39.713922,"lon":176.282657},{"assetId":100065458,"name":"Casino Hut","status":"OPEN","region":"East Coast","lat":-38.314036,"lon":176.908807},{"assetId":100065459,"name":"Duckville Hut","status":"OPEN","region":"East Coast","lat":-38.362575,"lon":176.878837},{"assetId":100065460,"name":"Mangapouri Hut","status":"OPEN","region":"East Coast","lat":-38.53631,"lon":176.831603},{"assetId":100065461,"name":"Mangatoatoa Hut","status":"OPEN","region":"East Coast","lat":-38.527818,"lon":177.167228},{"assetId":100065462,"name":"Apiti Hut","status":"OPEN","region":"East Coast","lat":-38.281136,"lon":176.964964},{"assetId":100065463,"name":"Tataweka Hut","status":"OPEN","region":"East Coast","lat":-38.457779,"lon":177.2188},{"assetId":100065464,"name":"Otapukawa Hut","status":"OPEN","region":"East Coast","lat":-38.392452,"lon":177.148825},{"assetId":100065465,"name":"Te Pua Hut","status":"OPEN","region":"East Coast","lat":-38.467664,"lon":177.135221},{"assetId":100065466,"name":"Mangakirikiri Hut","status":"OPEN","region":"East Coast","lat":-38.013194,"lon":177.67811},{"assetId":100065467,"name":"Oronui Hut","status":"OPEN","region":"East Coast","lat":-37.882663,"lon":177.994395},{"assetId":100065614,"name":"Sedgemere Sleepout","status":"OPEN","region":"Marlborough","lat":-42.135539,"lon":172.899978},{"assetId":100065683,"name":"Takarua Hut","status":"OPEN","region":"East Coast","lat":-38.480388,"lon":177.006961},{"assetId":100065705,"name":"Whakatakaa Hut","status":"OPEN","region":"East Coast","lat":-38.693159,"lon":177.000732},{"assetId":100065710,"name":"Waitewaewae Hut","status":"OPEN","region":"Wellington/Kapiti","lat":-40.830943,"lon":175.306219},{"assetId":100065711,"name":"Alpha Hut","status":"OPEN","region":"Wairarapa","lat":-40.98575,"lon":175.281914},{"assetId":100065713,"name":"Omaru Hut","status":"OPEN","region":"Manawatu/Whanganui","lat":-39.285213,"lon":174.777709},{"assetId":100065715,"name":"Pouri Hut","status":"OPEN","region":"Manawatu/Whanganui","lat":-39.337414,"lon":174.851257},{"assetId":100065847,"name":"Gosling Hut","status":"OPEN","region":"Marlborough","lat":-41.767325,"lon":173.346071},{"assetId":100071768,"name":"Herricks Hut","status":"OPEN","region":"Hawke’s Bay","lat":-39.588815,"lon":176.334832},{"assetId":100071769,"name":"Awatere Hut","status":"OPEN","region":"Hawke’s Bay","lat":-39.97087,"lon":176.138958},{"assetId":100071787,"name":"Sentry Box Hut (historic)","status":"OPEN","region":"Hawke’s Bay","lat":-39.668701,"lon":176.281201},{"assetId":100071994,"name":"Taruarau Bivvy","status":"OPEN","region":"Hawke’s Bay","lat":-39.543518,"lon":176.268556},{"assetId":100071995,"name":"History of Shutes Hut","status":"OPEN","region":"Hawke’s Bay","lat":-39.509888,"lon":176.293875},{"assetId":100071996,"name":"Kylie Bivvy","status":"OPEN","region":"Hawke’s Bay","lat":-39.679754,"lon":176.199587},{"assetId":100071997,"name":"Crow Hut","status":"OPEN","region":"Manawatu/Whanganui","lat":-39.766968,"lon":176.085151},{"assetId":100072001,"name":"Iron Bark Hut","status":"OPEN","region":"Manawatu/Whanganui","lat":-39.681735,"lon":176.092636},{"assetId":100072002,"name":"Poutaki Hut","status":"OPEN","region":"Hawke’s Bay","lat":-39.728325,"lon":176.314663},{"assetId":100072003,"name":"Sparrowhawk Bivvy","status":"OPEN","region":"Manawatu/Whanganui","lat":-39.738024,"lon":176.179287},{"assetId":100072187,"name":"Makomako Hut","status":"OPEN","region":"East Coast","lat":-38.536329,"lon":177.128663},{"assetId":100072188,"name":"Ohora Hut","status":"OPEN","region":"East Coast","lat":-38.314077,"lon":177.017794},{"assetId":100072191,"name":"Pakihi Hut","status":"OPEN","region":"East Coast","lat":-38.169785,"lon":177.467102},{"assetId":100072192,"name":"Tawa Hut","status":"OPEN","region":"East Coast","lat":-38.433766,"lon":177.262572},{"assetId":100072193,"name":"Koranga Forks Hut","status":"OPEN","region":"East Coast","lat":-38.397689,"lon":177.286635},{"assetId":100072269,"name":"Kelly Knight Hut","status":"OPEN","region":"Manawatu/Whanganui","lat":-39.850084,"lon":176.053123},{"assetId":100072286,"name":"Crystal Bivvy","status":"OPEN","region":"West Coast","lat":-42.996314,"lon":171.152813},{"assetId":100072289,"name":"Kakapo Hut","status":"OPEN","region":"West Coast","lat":-41.332378,"lon":172.303842},{"assetId":100072291,"name":"Kaweka Flats Bivvy","status":"OPEN","region":"Hawke’s Bay","lat":-39.261094,"lon":176.416529},{"assetId":100072296,"name":"IRON WHARE (H)","status":"OPEN","region":null,"lat":-39.256145,"lon":176.431362},{"assetId":100072304,"name":"Te Ekaou Hut","status":"OPEN","region":"Manawatu/Whanganui","lat":-40.109415,"lon":175.926821},{"assetId":100072305,"name":"Daphne Hut","status":"OPEN","region":"Hawke’s Bay","lat":-39.913185,"lon":176.144298},{"assetId":100072306,"name":"Kiritaki Hut","status":"OPEN","region":"Hawke’s Bay","lat":-40.188762,"lon":175.919004},{"assetId":100072309,"name":"Mid Pohangina Hut","status":"OPEN","region":"Manawatu/Whanganui","lat":-40.054552,"lon":176.036542},{"assetId":100072310,"name":"Top Maropea Hut","status":"OPEN","region":"Manawatu/Whanganui","lat":-39.774301,"lon":176.158065},{"assetId":100072311,"name":"Leon Kinvig Hut","status":"OPEN","region":"Manawatu/Whanganui","lat":-40.004111,"lon":176.076061},{"assetId":100072394,"name":"Top Tuke Hut","status":"OPEN","region":"West Coast","lat":-43.08968,"lon":170.889225},{"assetId":100072395,"name":"Price Basin Hut","status":"OPEN","region":"West Coast","lat":-43.130962,"lon":170.963538},{"assetId":100072396,"name":"Dunns Creek Hut","status":"OPEN","region":"West Coast","lat":-42.83469,"lon":171.428726},{"assetId":100072480,"name":"Wharekahika Hut","status":"OPEN","region":"East Coast","lat":-38.249263,"lon":177.034766},{"assetId":100072560,"name":"Greys Hut","status":"OPEN","region":"West Coast","lat":-41.238236,"lon":172.275689},{"assetId":100072706,"name":"Rangipo Hut","status":"OPEN","region":"Central North Island","lat":-39.300089,"lon":175.623749},{"assetId":100072710,"name":"Blyth Hut","status":"OPEN","region":"Central North Island","lat":-39.331799,"lon":175.524915},{"assetId":100072732,"name":"Onepu Hut","status":"OPEN","region":"East Coast","lat":-38.322422,"lon":177.064904},{"assetId":100072735,"name":"Kotepato Hut","status":"OPEN","region":"East Coast","lat":-38.333924,"lon":177.327474},{"assetId":100072737,"name":"Te Pourewa Hut","status":"OPEN","region":"East Coast","lat":-38.420649,"lon":177.108343},{"assetId":100072824,"name":"Forks Hut","status":"OPEN","region":"Manawatu/Whanganui","lat":-40.113881,"lon":175.940023},{"assetId":100072825,"name":"Traverse (A-Frame) Hut","status":"OPEN","region":"Hawke’s Bay","lat":-40.107185,"lon":176.014038},{"assetId":100072830,"name":"Triangle Hut","status":"OPEN","region":"Manawatu/Whanganui","lat":-39.904393,"lon":176.075534},{"assetId":100072831,"name":"Colenso Hut","status":"OPEN","region":"Manawatu/Whanganui","lat":-39.671923,"lon":176.140688},{"assetId":100072832,"name":"Pourangaki Hut","status":"OPEN","region":"Manawatu/Whanganui","lat":-39.85863,"lon":176.08077},{"assetId":100072833,"name":"Toka Bivvy","status":"OPEN","region":"Manawatu/Whanganui","lat":-39.983193,"lon":176.072405},{"assetId":100072834,"name":"Ngamoko Hut","status":"OPEN","region":"Manawatu/Whanganui","lat":-40.035376,"lon":176.052928},{"assetId":100072925,"name":"Hurunui Hut","status":"OPEN","region":"Bay of Plenty","lat":-37.817504,"lon":175.928393},{"assetId":100072934,"name":"Mangaturuturu Hut","status":"OPEN","region":"Central North Island","lat":-39.297329,"lon":175.502028},{"assetId":100073013,"name":"Parks Peak Hut","status":"OPEN","region":"Manawatu/Whanganui","lat":-39.677508,"lon":176.250553},{"assetId":100073037,"name":"Hanamahihi Hut","status":"OPEN","region":"East Coast","lat":-38.429864,"lon":176.95915},{"assetId":100073073,"name":"Makahu Saddle Hut","status":"OPEN","region":"Hawke’s Bay","lat":-39.286921,"lon":176.407863},{"assetId":100073082,"name":"Sandy Bay Hut","status":"OPEN","region":"East Coast","lat":-38.700918,"lon":177.188847},{"assetId":100073234,"name":"Middle Hill Hut","status":"OPEN","region":"Hawke’s Bay","lat":-39.227481,"lon":176.425297},{"assetId":100073360,"name":"Te Panaa Hut","status":"OPEN","region":"East Coast","lat":-38.459563,"lon":177.100003},{"assetId":100073373,"name":"Whanganui Hut","status":"OPEN","region":"East Coast","lat":-38.720521,"lon":177.040258},{"assetId":100073399,"name":"Central Te Hoe Hut","status":"OPEN","region":"East Coast","lat":-38.866831,"lon":176.766514},{"assetId":100073680,"name":"Upper Whirinaki Hut","status":"OPEN","region":"East Coast","lat":-38.812445,"lon":176.67298},{"assetId":100074783,"name":"Butler Junction Hut","status":"OPEN","region":"West Coast","lat":-43.408423,"lon":170.414126},{"assetId":100074785,"name":"Top Butler Hut","status":"OPEN","region":"West Coast","lat":-43.4207,"lon":170.439544},{"assetId":100074918,"name":"Smyth Hut","status":"OPEN","region":"West Coast","lat":-43.209437,"lon":170.848513},{"assetId":100075073,"name":"Hunters Hut","status":"OPEN","region":"West Coast","lat":-43.226478,"lon":170.751869},{"assetId":100075164,"name":"Toaroha Saddle Bivvy","status":"OPEN","region":"West Coast","lat":-43.024206,"lon":171.166521},{"assetId":100075317,"name":"Montgomerie Hut","status":"OPEN","region":"West Coast","lat":-42.149531,"lon":171.997493},{"assetId":100075429,"name":"Cannibal Gorge Hut","status":"OPEN","region":"West Coast","lat":-42.326738,"lon":172.429877},{"assetId":100075434,"name":"Slaty Creek Hut","status":"OPEN","region":"West Coast","lat":-42.545011,"lon":172.084627},{"assetId":100075435,"name":"Cone Creek Hut","status":"OPEN","region":"West Coast","lat":-42.682421,"lon":171.73322},{"assetId":100075437,"name":"Elizabeth Hut","status":"OPEN","region":"West Coast","lat":-42.688335,"lon":171.783673},{"assetId":100075537,"name":"Nichols Hut","status":"OPEN","region":"Wairarapa","lat":-40.810234,"lon":175.37592},{"assetId":100075555,"name":"Barbers Hut","status":"OPEN","region":"Marlborough","lat":-41.863917,"lon":173.168711},{"assetId":100075556,"name":"Caves Hut","status":"OPEN","region":"Marlborough","lat":-41.80641,"lon":173.190037},{"assetId":100075557,"name":"Mt Sunday Bivvy","status":"OPEN","region":"Marlborough","lat":-41.409269,"lon":173.679174},{"assetId":100075605,"name":"Mangahao Flats Hut","status":"OPEN","region":"Wellington/Kapiti","lat":-40.691785,"lon":175.43601},{"assetId":100075610,"name":"Tarn Ridge Hut","status":"OPEN","region":"Wairarapa","lat":-40.790643,"lon":175.435936},{"assetId":100075611,"name":"Sayer Hut","status":"OPEN","region":"Wairarapa","lat":-40.945943,"lon":175.394845},{"assetId":100075617,"name":"Te Rangaakapua Hut","status":"OPEN","region":"East Coast","lat":-38.521255,"lon":177.204144},{"assetId":100075680,"name":"Bark Bay Hut","status":"OPEN","region":"Nelson/Tasman","lat":-40.916122,"lon":173.048606},{"assetId":100075784,"name":"Locke Stream Hut","status":"OPEN","region":"West Coast","lat":-42.739808,"lon":171.830155},{"assetId":100075785,"name":"Koropuku Hut","status":"OPEN","region":"West Coast","lat":-42.812164,"lon":171.734355},{"assetId":100075796,"name":"Lake Dive Hut","status":"OPEN","region":"Taranaki","lat":-39.336105,"lon":174.060679},{"assetId":100075825,"name":"Upper Gridiron Hut","status":"OPEN","region":"Nelson/Tasman","lat":-41.170474,"lon":172.696344},{"assetId":100075829,"name":"Mt Arthur Hut","status":"OPEN","region":"Nelson/Tasman","lat":-41.197646,"lon":172.71573},{"assetId":100075831,"name":"Ellis Hut","status":"OPEN","region":"Nelson/Tasman","lat":-41.238669,"lon":172.684955},{"assetId":100075848,"name":"Brown Hut","status":"OPEN","region":"Nelson/Tasman","lat":-40.850541,"lon":172.447073},{"assetId":100075864,"name":"Chaffey Hut","status":"OPEN","region":"Nelson/Tasman","lat":-41.094741,"lon":172.570903},{"assetId":100075868,"name":"Asbestos Cottage","status":"OPEN","region":"Nelson/Tasman","lat":-41.129594,"lon":172.692196},{"assetId":100075879,"name":"Adelaide Tarn Hut","status":"OPEN","region":"Nelson/Tasman","lat":-40.942604,"lon":172.543354},{"assetId":100081146,"name":"Ngapurua Hut","status":"OPEN","region":"Manawatu/Whanganui","lat":-39.370836,"lon":174.908404},{"assetId":100081275,"name":"Angelus Hut","status":"OPEN","region":"Nelson/Tasman","lat":-41.888246,"lon":172.748693},{"assetId":100081276,"name":"Red Hills Hut","status":"OPEN","region":"Nelson/Tasman","lat":-41.731025,"lon":172.991475},{"assetId":100081354,"name":"Holyoakes Shelter","status":"OPEN","region":"Nelson/Tasman","lat":-40.96402,"lon":173.00164},{"assetId":100081516,"name":"Bluff Hut","status":"OPEN","region":"West Coast","lat":-43.046707,"lon":171.126955},{"assetId":100081518,"name":"Lower Arahura Hut","status":"OPEN","region":"West Coast","lat":-42.856015,"lon":171.300243},{"assetId":100081884,"name":"Crow Hut","status":"OPEN","region":"Nelson/Tasman","lat":-41.292578,"lon":172.468629},{"assetId":100082084,"name":"Atiwhakatu Hut","status":"OPEN","region":"Wairarapa","lat":-40.868224,"lon":175.454144},{"assetId":100082399,"name":"Venus Hut","status":"OPEN","region":"Nelson/Tasman","lat":-41.31667,"lon":172.439353},{"assetId":100083011,"name":"Crosbies Hut","status":"OPEN","region":"Coromandel","lat":-37.045964,"lon":175.601997},{"assetId":100086628,"name":"Top Crawford Hut","status":"OPEN","region":"West Coast","lat":-42.93514,"lon":171.278447},{"assetId":100088433,"name":"Mt Brown Hut","status":"OPEN","region":"West Coast","lat":-42.869185,"lon":171.200364},{"assetId":100089251,"name":"Camp Creek Hut","status":"OPEN","region":"West Coast","lat":-42.705966,"lon":171.561369},{"assetId":100090233,"name":"Poor Pete's Hut","status":"OPEN","region":"Nelson/Tasman","lat":-41.613924,"lon":172.322176},{"assetId":100094539,"name":"Kime Hut","status":"OPEN","region":"Wellington/Kapiti","lat":-40.942889,"lon":175.271659},{"assetId":100094828,"name":"Anchorage Hut","status":"OPEN","region":"Nelson/Tasman","lat":-40.956889,"lon":173.057714},{"assetId":100095579,"name":"Mt Curtis Hut","status":"OPEN","region":null,"lat":-41.899149,"lon":172.045988},{"assetId":100097446,"name":"Maropea Forks Hut","status":"OPEN","region":"Manawatu/Whanganui","lat":-39.729801,"lon":176.138556},{"assetId":100097715,"name":"Pahautea Hut 20 bunk","status":"OPEN","region":null,"lat":-37.993378,"lon":175.09188},{"assetId":100098283,"name":"Kopuatai Duck Hut 1","status":"OPEN","region":null,"lat":-37.391723,"lon":175.52203},{"assetId":100098284,"name":"Kopuatai Duck Hut 2","status":"OPEN","region":null,"lat":-37.398942,"lon":175.533398},{"assetId":100098285,"name":"Kopuatai Duck Hut 3","status":"OPEN","region":null,"lat":-37.417485,"lon":175.531413},{"assetId":100098287,"name":"Kopuatai Duck Hut 6","status":"OPEN","region":null,"lat":-37.419236,"lon":175.523269},{"assetId":100098294,"name":"Kopuatai Duck Hut 17","status":"OPEN","region":null,"lat":-37.448694,"lon":175.523728},{"assetId":100098295,"name":"Whangamarino Duck Hut B","status":"OPEN","region":null,"lat":-37.354803,"lon":175.183802},{"assetId":100098296,"name":"Whangamarino Duck Hut C","status":"OPEN","region":null,"lat":-37.334722,"lon":175.119519},{"assetId":100098297,"name":"Whangamarino Duck Hut E","status":"OPEN","region":null,"lat":-37.337647,"lon":175.136261},{"assetId":100102808,"name":"Soper Shelter","status":"OPEN","region":"Nelson/Tasman","lat":-41.006357,"lon":172.596794},{"assetId":100131709,"name":"Kohanga Atawhai - Manson-Nicholls Hut","status":"OPEN","region":null,"lat":-42.304953,"lon":172.289625},{"assetId":100132644,"name":"New Iron Gate Hut","status":"OPEN","region":null,"lat":-39.926949,"lon":176.057111},{"assetId":100000062,"name":"Lake Poteriteri Hut","status":"OPEN","region":"Fiordland","lat":-46.110764,"lon":167.152819},{"assetId":100000822,"name":"Lake Alabaster Hut","status":"OPEN","region":"Fiordland","lat":-44.546418,"lon":168.143563},{"assetId":100030125,"name":"Comyns Hut","status":"OPEN","region":"Canterbury","lat":-43.428753,"lon":171.366987},{"assetId":100030126,"name":"A Frame Hut","status":"OPEN","region":"Canterbury","lat":-43.382862,"lon":171.370368},{"assetId":100030127,"name":"Manuka Hut","status":"OPEN","region":"Canterbury","lat":-43.5356,"lon":171.254487},{"assetId":100030128,"name":"Double Hut","status":"OPEN","region":"Canterbury","lat":-43.495506,"lon":171.260504},{"assetId":100030327,"name":"Upper Oreti Hut","status":"OPEN","region":null,"lat":-45.375398,"lon":168.217835},{"assetId":100030328,"name":"Cowshed Hut","status":"OPEN","region":null,"lat":-45.371648,"lon":168.471802},{"assetId":100030357,"name":"Staircase Hut","status":"OPEN","region":"Otago","lat":-45.29319,"lon":170.680103},{"assetId":100030575,"name":"McIntyre Hut","status":"OPEN","region":"Otago","lat":-44.837453,"lon":168.444313},{"assetId":100030935,"name":"Big Hut","status":"OPEN","region":"Otago","lat":-45.435786,"lon":170.075308},{"assetId":100030937,"name":"Little Glory Hunters Hut","status":"OPEN","region":"Southland","lat":-46.974256,"lon":168.153984},{"assetId":100030976,"name":"Kellys Hunters Hut","status":"OPEN","region":"Southland","lat":-47.072359,"lon":168.17165},{"assetId":100031288,"name":"Tutu Hut","status":"OPEN","region":"Canterbury","lat":-42.550396,"lon":172.606505},{"assetId":100031289,"name":"Steyning Hut","status":"OPEN","region":"Canterbury","lat":-42.469454,"lon":172.557844},{"assetId":100031290,"name":"Ashton Hut","status":"OPEN","region":"Southland","lat":-45.384316,"lon":168.268229},{"assetId":100031291,"name":"Upper Wairaki Hut","status":"OPEN","region":"Southland","lat":-45.735023,"lon":167.88931},{"assetId":100031292,"name":"Lower Windley Hut","status":"OPEN","region":"Southland","lat":-45.506956,"lon":168.195736},{"assetId":100031570,"name":"Steele Creek Hut","status":"OPEN","region":"Otago","lat":-44.926106,"lon":168.214392},{"assetId":100031571,"name":"Kay Creek Hut","status":"OPEN","region":"Otago","lat":-44.79914,"lon":168.246392},{"assetId":100031572,"name":"Dynamo Red Hut","status":"OPEN","region":"Otago","lat":-44.803295,"lon":168.653024},{"assetId":100031573,"name":"Earnslaw Hut","status":"OPEN","region":"Otago","lat":-44.622076,"lon":168.448078},{"assetId":100031574,"name":"Murchison Hut","status":"CLSD","region":null,"lat":-43.519447,"lon":170.394205},{"assetId":100031575,"name":"Archie's Hut - Copper Creek","status":"OPEN","region":"Otago","lat":-44.796056,"lon":168.637208},{"assetId":100031576,"name":"Ballarat Hut - Flood Burn","status":"OPEN","region":"Otago","lat":-44.750963,"lon":168.656968},{"assetId":100033536,"name":"Cromel Branch Hut","status":"OPEN","region":"Southland","lat":-45.473117,"lon":168.36016},{"assetId":100033537,"name":"Cromel Base Hut","status":"OPEN","region":"Southland","lat":-45.540627,"lon":168.353471},{"assetId":100034171,"name":"Eel Creek Hut","status":"OPEN","region":"Fiordland","lat":-45.882275,"lon":167.361351},{"assetId":100034563,"name":"Dodger Hut","status":"OPEN","region":"Canterbury","lat":-43.896039,"lon":169.87906},{"assetId":100034564,"name":"Huxley Forks Hut","status":"OPEN","region":"Canterbury","lat":-44.007619,"lon":169.743246},{"assetId":100034565,"name":"Ahuriri Base Hut","status":"OPEN","region":"Canterbury","lat":-44.272115,"lon":169.599202},{"assetId":100034566,"name":"Top Hut ","status":"OPEN","region":"Canterbury","lat":-44.121975,"lon":169.665039},{"assetId":100034567,"name":"Reardon Hut","status":"OPEN","region":"Canterbury","lat":-43.802935,"lon":169.999239},{"assetId":100034569,"name":"South Temple Hut","status":"OPEN","region":"Canterbury","lat":-44.133198,"lon":169.751033},{"assetId":100034980,"name":"Bob's Camp Bivvy","status":"OPEN","region":"Canterbury","lat":-43.142221,"lon":172.291505},{"assetId":100035146,"name":"Junction Burn Hut","status":"OPEN","region":"Fiordland","lat":-45.150984,"lon":167.497657},{"assetId":100035152,"name":"McKerrow Island Hut","status":"OPEN","region":"Fiordland","lat":-44.518627,"lon":168.062696},{"assetId":100035406,"name":"Upper Windley Hut","status":"OPEN","region":"Southland","lat":-45.438281,"lon":168.245733},{"assetId":100035408,"name":"Aparima Forks Hut","status":"OPEN","region":"Southland","lat":-45.671322,"lon":167.929691},{"assetId":100037700,"name":"Magdalen Hut","status":"OPEN","region":"Canterbury","lat":-42.497337,"lon":172.474807},{"assetId":100037975,"name":"Deas Cove Hut","status":"OPEN","region":"Fiordland","lat":-45.193664,"lon":166.97333},{"assetId":100038193,"name":"Top Hut","status":"OPEN","region":"Otago","lat":-44.674672,"lon":169.808021},{"assetId":100038202,"name":"Westies Hut","status":"OPEN","region":"Fiordland","lat":-46.224076,"lon":166.946091},{"assetId":100038217,"name":"Boundary Creek Hut","status":"OPEN","region":"Otago","lat":-44.728744,"lon":169.854864},{"assetId":100038295,"name":"Devils Den Bivvy","status":"OPEN","region":"Canterbury","lat":-42.487802,"lon":172.294069},{"assetId":100038360,"name":"Heather Jock Hut","status":"OPEN","region":"Otago","lat":-44.854176,"lon":168.455736},{"assetId":100038361,"name":"Wallers Hut","status":"OPEN","region":null,"lat":-44.85236,"lon":168.48367},{"assetId":100038369,"name":"Roses Hut  ","status":"OPEN","region":"Otago","lat":-44.804479,"lon":168.86266},{"assetId":100038504,"name":"Hokuri Hut","status":"OPEN","region":"Fiordland","lat":-44.421075,"lon":168.056137},{"assetId":100038662,"name":"Jubilee Hut","status":"OPEN","region":"Otago","lat":-45.719073,"lon":170.440308},{"assetId":100038673,"name":"Officers Hut","status":"OPEN","region":null,"lat":-44.007686,"lon":169.74308},{"assetId":100038838,"name":"Brewster Hut","status":"OPEN","region":"Otago","lat":-44.088141,"lon":169.411846},{"assetId":100039154,"name":"Otamatapaio Hut ","status":"OPEN","region":"Canterbury","lat":-44.673133,"lon":169.989538},{"assetId":100039155,"name":"Middle Gorge Hut","status":"OPEN","region":"Canterbury","lat":-43.764992,"lon":170.462116},{"assetId":100039555,"name":"Highland Creek Hut ","status":"OPEN","region":"Otago","lat":-44.774159,"lon":168.941757},{"assetId":100039578,"name":"Young Hut","status":"OPEN","region":"Otago","lat":-44.174629,"lon":169.089914},{"assetId":100039845,"name":"Abrahams Bay Hunters Hut","status":"OPEN","region":"Southland","lat":-46.947992,"lon":168.023395},{"assetId":100039936,"name":"Hapuatuna Hunters Hut","status":"OPEN","region":"Southland","lat":-46.954472,"lon":168.071734},{"assetId":100040275,"name":"Potts Hut","status":"OPEN","region":"Canterbury","lat":-43.490982,"lon":170.970795},{"assetId":100040276,"name":"Boundary Creek Hut","status":"OPEN","region":"Canterbury","lat":-43.529461,"lon":171.071451},{"assetId":100040277,"name":"Top Hut","status":"OPEN","region":"Canterbury","lat":-43.420768,"lon":171.028903},{"assetId":100040290,"name":"McIntosh Hut","status":"OPEN","region":"Otago","lat":-44.831661,"lon":168.456396},{"assetId":100040528,"name":"Kirtle Burn Hut","status":"OPEN","region":"Otago","lat":-44.871004,"lon":169.160675},{"assetId":100040541,"name":"Deep Creek Hut","status":"OPEN","region":"Otago","lat":-44.957142,"lon":169.120695},{"assetId":100040562,"name":"North Pegasus Hunters Hut","status":"OPEN","region":"Southland","lat":-47.194294,"lon":167.667894},{"assetId":100040563,"name":"South Pegasus Hunters Hut","status":"OPEN","region":"Southland","lat":-47.19822,"lon":167.638114},{"assetId":100040564,"name":"North Big Glory Hunters Hut","status":"OPEN","region":"Southland","lat":-46.959488,"lon":168.124425},{"assetId":100041235,"name":"Dog Box Bivvy","status":"OPEN","region":null,"lat":-45.364699,"lon":168.39989},{"assetId":100041350,"name":"North Tikotatahi Hunters Hut","status":"OPEN","region":"Southland","lat":-47.084798,"lon":168.152286},{"assetId":100041790,"name":"Pearson Hut","status":"OPEN","region":"Canterbury","lat":-44.602671,"lon":170.429085},{"assetId":100042165,"name":"Sawyer Burn Hut","status":"OPEN","region":null,"lat":-44.415791,"lon":169.257171},{"assetId":100042338,"name":"Telford Hut","status":"OPEN","region":"Southland","lat":-45.752291,"lon":167.846595},{"assetId":100042893,"name":"Old Woman Hut","status":"OPEN","region":"Otago","lat":-45.20813,"lon":169.070435},{"assetId":100042895,"name":"Junction Hut","status":"OPEN","region":"Otago","lat":-45.510777,"lon":169.184298},{"assetId":100043119,"name":"French Ridge Hut","status":"OPEN","region":"Otago","lat":-44.428661,"lon":168.693864},{"assetId":100043138,"name":"Bullendale Hut","status":"OPEN","region":"Otago","lat":-44.78752,"lon":168.673526},{"assetId":100043139,"name":"Crystal Hut","status":"OPEN","region":"Otago","lat":-44.830487,"lon":168.667131},{"assetId":100043140,"name":"Dynamo Hut","status":"OPEN","region":"Otago","lat":-44.801252,"lon":168.662509},{"assetId":100043141,"name":"Racemans Hut","status":"OPEN","region":"Otago","lat":-45.086476,"lon":168.876107},{"assetId":100043142,"name":"Two Mile Hut","status":"OPEN","region":"Otago","lat":-45.174463,"lon":168.802705},{"assetId":100043235,"name":"St Winifreds Hut","status":"OPEN","region":"Canterbury","lat":-43.417063,"lon":170.683055},{"assetId":100043236,"name":"Carney's Bivvy No. 1","status":"OPEN","region":"Canterbury","lat":-43.496209,"lon":170.66233},{"assetId":100043237,"name":"Carney's Bivvy No. 2","status":"OPEN","region":"Canterbury","lat":-43.496242,"lon":170.662181},{"assetId":100043238,"name":"Curtis Memorial Hut","status":"OPEN","region":"Canterbury","lat":-43.452497,"lon":170.712735},{"assetId":100043242,"name":"Onslow Hut (Steffan Memorial Hut)","status":"OPEN","region":"Canterbury","lat":-43.61014,"lon":170.306029},{"assetId":100043243,"name":"Godley Hut","status":"OPEN","region":"Canterbury","lat":-43.480417,"lon":170.510604},{"assetId":100043518,"name":"Esquilant Bivvy Hut","status":"OPEN","region":"Otago","lat":-44.615316,"lon":168.407041},{"assetId":100043653,"name":"Martins Bay Hut","status":"OPEN","region":"Fiordland","lat":-44.335073,"lon":168.003207},{"assetId":100043654,"name":"Glaisnock Hut","status":"OPEN","region":"Fiordland","lat":-44.998156,"lon":167.696825},{"assetId":100043681,"name":"Hidden Falls Hut","status":"OPEN","region":"Fiordland","lat":-44.623919,"lon":168.114338},{"assetId":100043825,"name":"Lower Wairaki Hut","status":"OPEN","region":"Southland","lat":-45.779288,"lon":167.940228},{"assetId":100043828,"name":"Freds Camp Hut","status":"OPEN","region":"Southland","lat":-46.928547,"lon":167.977689},{"assetId":100043834,"name":"Whare Creek Hut","status":"OPEN","region":"Southland","lat":-45.66859,"lon":167.82508},{"assetId":100043893,"name":"Boundary Hut","status":"OPEN","region":"Otago","lat":-45.329957,"lon":169.145034},{"assetId":100043894,"name":"Nicholsons Hut","status":"OPEN","region":"Otago","lat":-45.352951,"lon":169.186099},{"assetId":100044463,"name":"Snowy Gorge Hut","status":"OPEN","region":"Canterbury","lat":-44.283023,"lon":169.697775},{"assetId":100044464,"name":"Dasler Biv","status":"OPEN","region":"Canterbury","lat":-43.956254,"lon":169.845747},{"assetId":100044685,"name":"Lincoln Hut","status":"OPEN","region":"Southland","lat":-45.391824,"lon":168.198956},{"assetId":100044686,"name":"Kaipo Hut","status":"OPEN","region":"Fiordland","lat":-44.489063,"lon":167.943011},{"assetId":100053970,"name":"East Ruggedy Hut","status":"OPEN","region":"Southland","lat":-46.723481,"lon":167.746167},{"assetId":100054075,"name":"Mason Bay Hut","status":"OPEN","region":"Southland","lat":-46.926519,"lon":167.780334},{"assetId":100054155,"name":"Shallow Bay Hut","status":"OPEN","region":"Fiordland","lat":-45.493261,"lon":167.612639},{"assetId":100054490,"name":"Big Bay Hut","status":"OPEN","region":"Fiordland","lat":-44.299094,"lon":168.11497},{"assetId":100054491,"name":"Army Hut","status":"OPEN","region":"Southland","lat":-45.258292,"lon":168.028304},{"assetId":100054890,"name":"Big Hellfire Hut","status":"OPEN","region":"Southland","lat":-46.814187,"lon":167.737918},{"assetId":100055258,"name":"APARIMA - TONY'S HUT","status":"OPEN","region":null,"lat":-45.70778,"lon":168.000406},{"assetId":100055526,"name":"Port William Hut","status":"OPEN","region":"Southland","lat":-46.835814,"lon":168.087066},{"assetId":100055692,"name":"Freshwater Hut","status":"OPEN","region":"Southland","lat":-46.868261,"lon":167.919793},{"assetId":100055693,"name":"Cavalier Hunters Hut","status":"OPEN","region":"Southland","lat":-46.963199,"lon":167.722547},{"assetId":100055694,"name":"Rakeahua Hut","status":"OPEN","region":"Southland","lat":-46.982194,"lon":167.88098},{"assetId":100056297,"name":"Turnbull's (Big Dam) Hut","status":"OPEN","region":"Southland","lat":-46.291583,"lon":167.851878},{"assetId":100056329,"name":"Aparima Hut","status":"OPEN","region":"Southland","lat":-45.70739,"lon":167.999323},{"assetId":100056330,"name":"Spence Hut","status":"OPEN","region":"Southland","lat":-45.705031,"lon":167.878715},{"assetId":100056331,"name":"Irthing Hut","status":"OPEN","region":"Southland","lat":-45.439173,"lon":168.376593},{"assetId":100056332,"name":"Islands Hut","status":"OPEN","region":"Southland","lat":-45.468434,"lon":168.290323},{"assetId":100056333,"name":"Beech Hut","status":"OPEN","region":"Southland","lat":-45.346755,"lon":168.435405},{"assetId":100057328,"name":"CHEW TOBACCO HUNTERS HUT","status":"OPEN","region":null,"lat":-47.016952,"lon":168.210864},{"assetId":100057624,"name":"Red Stag Hut","status":"OPEN","region":"Canterbury","lat":-43.540081,"lon":170.502555},{"assetId":100057665,"name":"Upper Spey Hut","status":"OPEN","region":"Fiordland","lat":-45.58024,"lon":167.163205},{"assetId":100057899,"name":"Supper Cove Hut","status":"OPEN","region":"Fiordland","lat":-45.702186,"lon":166.944076},{"assetId":100057908,"name":"Loch Maree Hut","status":"OPEN","region":"Fiordland","lat":-45.684869,"lon":167.065667},{"assetId":100058073,"name":"Shepherd Creek Hut","status":"OPEN","region":"Southland","lat":-45.404175,"lon":168.431757},{"assetId":100058074,"name":"Olivine Hut","status":"OPEN","region":"Fiordland","lat":-44.443694,"lon":168.213989},{"assetId":100058149,"name":"Lower Princhester Hut","status":"OPEN","region":"Southland","lat":-45.593313,"lon":167.951587},{"assetId":100058155,"name":"The Gut Hut","status":"OPEN","region":"Fiordland","lat":-45.295646,"lon":166.956145},{"assetId":100058195,"name":"Kintail Hut","status":"OPEN","region":"Fiordland","lat":-45.614558,"lon":167.115854},{"assetId":100058225,"name":"Demon Trail Hut","status":"OPEN","region":"Fiordland","lat":-44.493992,"lon":168.073182},{"assetId":100058228,"name":"Boundary Hut","status":"OPEN","region":"Southland","lat":-45.140184,"lon":168.179254},{"assetId":100058315,"name":"West Arm Hut","status":"OPEN","region":"Fiordland","lat":-45.525423,"lon":167.263192},{"assetId":100058399,"name":"Careys Hut","status":"OPEN","region":"Southland","lat":-45.188355,"lon":168.164639},{"assetId":100058413,"name":"Caroline Hut","status":"OPEN","region":"Fiordland","lat":-45.941316,"lon":167.283286},{"assetId":100058417,"name":"Rodger Inlet Hut (historic)","status":"OPEN","region":"Fiordland","lat":-45.857218,"lon":167.442764},{"assetId":100058615,"name":"Port Craig School Hut","status":"OPEN","region":"Fiordland","lat":-46.222589,"lon":167.361476},{"assetId":100058625,"name":"George Sound Hut","status":"OPEN","region":"Fiordland","lat":-44.983698,"lon":167.440518},{"assetId":100058632,"name":"Lake Thomson Hut","status":"OPEN","region":"Fiordland","lat":-45.025209,"lon":167.537289},{"assetId":100058644,"name":"Lake Hankinson Hut","status":"OPEN","region":"Fiordland","lat":-45.046181,"lon":167.565458},{"assetId":100058703,"name":"North Arm Hut","status":"OPEN","region":"Southland","lat":-46.88295,"lon":168.018453},{"assetId":100058723,"name":"Halfway Hut","status":"OPEN","region":"Fiordland","lat":-45.759734,"lon":167.142923},{"assetId":100058756,"name":"Mt Bee Bunkrooms","status":"OPEN","region":"Southland","lat":-45.525181,"lon":168.372098},{"assetId":100058799,"name":"Maclennan Hut","status":"OPEN","region":"Otago","lat":-46.432125,"lon":169.36163},{"assetId":100058801,"name":"Tautuku Hut","status":"OPEN","region":"Otago","lat":-46.55372,"lon":169.32502},{"assetId":100058830,"name":"Daleys Flat Hut","status":"OPEN","region":"Otago","lat":-44.548149,"lon":168.374496},{"assetId":100058859,"name":"Waitutu Hut","status":"OPEN","region":"Fiordland","lat":-46.236936,"lon":167.06335},{"assetId":100058861,"name":"Wairaurahiri Hut","status":"OPEN","region":"Fiordland","lat":-46.253839,"lon":167.217309},{"assetId":100059027,"name":"Big Hopwood Burn Hut","status":"OPEN","region":"Otago","lat":-44.302741,"lon":169.324269},{"assetId":100059028,"name":"Ferguson Hut","status":"OPEN","region":"Otago","lat":-44.119653,"lon":169.550569},{"assetId":100059029,"name":"Forbes Hut","status":"OPEN","region":"Otago","lat":-44.048845,"lon":169.619756},{"assetId":100059095,"name":"Borland Bivvy","status":"OPEN","region":"Fiordland","lat":-45.739696,"lon":167.373401},{"assetId":100059096,"name":"Lake Roe Hut","status":"OPEN","region":"Fiordland","lat":-45.703543,"lon":167.14361},{"assetId":100059099,"name":"Hauroko Burn Hut","status":"OPEN","region":"Fiordland","lat":-45.830648,"lon":167.145481},{"assetId":100059128,"name":"Shelter Rock Hut","status":"OPEN","region":"Otago","lat":-44.558658,"lon":168.508952},{"assetId":100059144,"name":"Kerin Forks Hut ","status":"OPEN","region":"Otago","lat":-44.239318,"lon":169.036074},{"assetId":100059145,"name":"Top Forks Hut","status":"OPEN","region":null,"lat":-44.27441,"lon":168.891096},{"assetId":100059146,"name":"Top Forks Hut","status":"CLSD","region":"Otago","lat":-44.274479,"lon":168.891029},{"assetId":100059208,"name":"Slip Flat Hut","status":"OPEN","region":"Otago","lat":-44.95628,"lon":168.274357},{"assetId":100059246,"name":"Makarora Hut","status":"OPEN","region":"Otago","lat":-44.129288,"lon":169.440426},{"assetId":100059248,"name":"Cameron Hut","status":"OPEN","region":"Otago","lat":-44.199068,"lon":169.315912},{"assetId":100059331,"name":"Albert Burn Hut","status":"OPEN","region":"Otago","lat":-44.341939,"lon":169.035101},{"assetId":100059474,"name":"Top Dingle Hut","status":"OPEN","region":"Otago","lat":-44.280262,"lon":169.557741},{"assetId":100059475,"name":"Cotters Hut","status":"OPEN","region":"Otago","lat":-44.362289,"lon":169.517246},{"assetId":100059476,"name":"Bush Hut","status":"OPEN","region":"Otago","lat":-44.408814,"lon":169.461937},{"assetId":100059540,"name":"Elcho Hut","status":"OPEN","region":"Canterbury","lat":-43.931353,"lon":169.830172},{"assetId":100059543,"name":"Hideaway Hut","status":"OPEN","region":"Canterbury","lat":-44.346023,"lon":169.6807},{"assetId":100059692,"name":"Lauder Basin Hut","status":"OPEN","region":"Otago","lat":-44.845458,"lon":169.660136},{"assetId":100059864,"name":"Carlyle Hut","status":"OPEN","region":"Canterbury","lat":-42.550341,"lon":172.495824},{"assetId":100060268,"name":"Wills Hut","status":"OPEN","region":"West Coast","lat":-44.039232,"lon":169.458634},{"assetId":100060522,"name":"Lawrence Bivvy","status":"OPEN","region":"Canterbury","lat":-43.348413,"lon":170.92177},{"assetId":100060560,"name":"Cullers Hut","status":"OPEN","region":"Canterbury","lat":-43.922018,"lon":169.83641},{"assetId":100060561,"name":"Brodrick Hut","status":"OPEN","region":"Canterbury","lat":-43.975009,"lon":169.729036},{"assetId":100060562,"name":"South Huxley Bivvy","status":"OPEN","region":"Canterbury","lat":-44.046908,"lon":169.741042},{"assetId":100060563,"name":"Shamrock Hut","status":"OPEN","region":"Canterbury","lat":-44.20694,"lon":169.622996},{"assetId":100060564,"name":"Hagens Hut","status":"OPEN","region":"Canterbury","lat":-44.155339,"lon":169.639549},{"assetId":100060565,"name":"Kennedy Memorial Hut","status":"OPEN","region":"Canterbury","lat":-43.88001,"lon":169.963729},{"assetId":100060566,"name":"Grough Hut","status":"OPEN","region":"Canterbury","lat":-43.933438,"lon":169.946645},{"assetId":100060645,"name":"Camp Stream Hut","status":"OPEN","region":"Canterbury","lat":-43.793864,"lon":170.649212},{"assetId":100060647,"name":"Baikie Hut","status":"OPEN","region":"Canterbury","lat":-44.108193,"lon":170.064592},{"assetId":100060707,"name":"Meg Hut","status":"OPEN","region":"Otago","lat":-44.916091,"lon":169.056353},{"assetId":100060712,"name":"Top Timaru Hut","status":"OPEN","region":"Otago","lat":-44.470482,"lon":169.501394},{"assetId":100060745,"name":"West Mathias Bivvy","status":"OPEN","region":"Canterbury","lat":-43.166499,"lon":171.089604},{"assetId":100060746,"name":"Mathias Hut","status":"OPEN","region":"Canterbury","lat":-43.186742,"lon":171.131058},{"assetId":100060748,"name":"Lyell Hut","status":"CLSD","region":"Canterbury","lat":-43.299146,"lon":170.909655},{"assetId":100060749,"name":"Cameron Hut","status":"OPEN","region":"Canterbury","lat":-43.367114,"lon":171.018066},{"assetId":100060797,"name":"Glenrae Hut","status":"OPEN","region":"Canterbury","lat":-42.764411,"lon":172.433849},{"assetId":100060920,"name":"Maitland Hut","status":"OPEN","region":"Canterbury","lat":-44.216584,"lon":169.742916},{"assetId":100061482,"name":"Pinnacles Hut","status":"OPEN","region":"Canterbury","lat":-43.609838,"lon":171.382442},{"assetId":100061485,"name":"Canyon Creek Bivvy","status":"OPEN","region":"Canterbury","lat":-43.107751,"lon":171.154713},{"assetId":100061861,"name":"Cheviot Downs Hut","status":"OPEN","region":"Southland","lat":-45.632148,"lon":167.785717},{"assetId":100061869,"name":"Back Valley Hut","status":"OPEN","region":"Fiordland","lat":-45.600405,"lon":167.581422},{"assetId":100061993,"name":"Kiwi Burn Hut","status":"OPEN","region":"Southland","lat":-45.355171,"lon":168.09082},{"assetId":100062000,"name":"Te Oneroa A-frame Hut","status":"OPEN","region":"Fiordland","lat":-46.12328,"lon":166.672104},{"assetId":100062081,"name":"Monowai Hut","status":"OPEN","region":"Fiordland","lat":-45.834298,"lon":167.349421},{"assetId":100062414,"name":"Evans Hut","status":"OPEN","region":"Canterbury","lat":-43.259707,"lon":171.030881},{"assetId":100062415,"name":"Reischek Hut","status":"OPEN","region":"Canterbury","lat":-43.279799,"lon":170.964199},{"assetId":100062416,"name":"Lawrence Hut","status":"OPEN","region":"Canterbury","lat":-43.421241,"lon":170.885112},{"assetId":100062417,"name":"Watchdog Hut","status":"OPEN","region":"Canterbury","lat":-43.40821,"lon":170.788418},{"assetId":100062491,"name":"Sam Summers Hut","status":"OPEN","region":"Otago","lat":-45.047571,"lon":168.531719},{"assetId":100062543,"name":"Spurs Hut","status":"OPEN","region":"Canterbury","lat":-43.826672,"lon":170.871926},{"assetId":100062596,"name":"Hurunui No. 3 Hut","status":"OPEN","region":"Canterbury","lat":-42.70084,"lon":171.987949},{"assetId":100062597,"name":"Hurunui Hut","status":"OPEN","region":"Canterbury","lat":-42.70371,"lon":172.096389},{"assetId":100062671,"name":"Copland Shelter","status":"OPEN","region":"Canterbury","lat":-43.654809,"lon":170.098456},{"assetId":100062861,"name":"Hope Halfway Hut","status":"OPEN","region":"Canterbury","lat":-42.615627,"lon":172.29809},{"assetId":100062864,"name":"Jolliebrook Hut","status":"OPEN","region":"Canterbury","lat":-42.7199,"lon":172.333983},{"assetId":100062865,"name":"Gabriel Hut","status":"OPEN","region":"Canterbury","lat":-42.721255,"lon":172.289731},{"assetId":100062866,"name":"Cold Stream Hut","status":"OPEN","region":"Canterbury","lat":-42.743908,"lon":172.381938},{"assetId":100062867,"name":"Caroline Creek Bivvy","status":"OPEN","region":"Canterbury","lat":-42.153615,"lon":172.660172},{"assetId":100062868,"name":"Lake Guyon Hut","status":"OPEN","region":"Canterbury","lat":-42.287089,"lon":172.648587},{"assetId":100062869,"name":"Glenrae Bivvy","status":"OPEN","region":"Canterbury","lat":-42.69477,"lon":172.442625},{"assetId":100062870,"name":"Lucretia Hut","status":"OPEN","region":"Canterbury","lat":-42.427055,"lon":172.348555},{"assetId":100062871,"name":"Lake Man Bivvy","status":"OPEN","region":"Canterbury","lat":-42.549152,"lon":172.223514},{"assetId":100062872,"name":"Evangaline Bivvy","status":"OPEN","region":"Canterbury","lat":-42.682463,"lon":172.278748},{"assetId":100063057,"name":"Top Hope Hut","status":"OPEN","region":"Canterbury","lat":-42.589757,"lon":172.175515},{"assetId":100063065,"name":"Christopher (Ada) Cullers Hut","status":"OPEN","region":"Canterbury","lat":-42.283155,"lon":172.557766},{"assetId":100063066,"name":"Christopher Hut","status":"OPEN","region":"Canterbury","lat":-42.288496,"lon":172.565031},{"assetId":100063076,"name":"Rokeby Hut","status":"OPEN","region":"Canterbury","lat":-42.433613,"lon":172.463449},{"assetId":100063246,"name":"Boyle Flat Hut","status":"OPEN","region":"Canterbury","lat":-42.466369,"lon":172.459921},{"assetId":100063293,"name":"Mackenzie Hut","status":"OPEN","region":"Canterbury","lat":-42.648325,"lon":172.018457},{"assetId":100063294,"name":"Camerons Hut","status":"OPEN","region":"Canterbury","lat":-42.710919,"lon":171.952104},{"assetId":100063295,"name":"Harper Pass Bivvy","status":"OPEN","region":"Canterbury","lat":-42.725024,"lon":171.896707},{"assetId":100063296,"name":"Three Mile Stream Hut","status":"OPEN","region":"Canterbury","lat":-42.659398,"lon":172.152218},{"assetId":100063298,"name":"North Esk Hut (dilapidated)","status":"OPEN","region":"Canterbury","lat":-42.800671,"lon":172.069359},{"assetId":100063446,"name":"Sefton Bivouac","status":"OPEN","region":"Canterbury","lat":-43.687879,"lon":170.075843},{"assetId":100063490,"name":"Upper Nina Bivvy","status":"OPEN","region":"Canterbury","lat":-42.469501,"lon":172.272269},{"assetId":100064697,"name":"Stoney Creek Hut","status":"OPEN","region":"Otago","lat":-44.848915,"lon":168.587846},{"assetId":100064750,"name":"Home Hill Hut","status":"OPEN","region":"Otago","lat":-44.916148,"lon":168.279087},{"assetId":100064964,"name":"North Borland Hut","status":"OPEN","region":"Fiordland","lat":-45.685868,"lon":167.486112},{"assetId":100065470,"name":"Mistake Flat Hut","status":"OPEN","region":"Canterbury","lat":-43.44835,"lon":170.693662},{"assetId":100065471,"name":"Forbes Bivvy","status":"OPEN","region":"Canterbury","lat":-43.464821,"lon":170.648274},{"assetId":100065472,"name":"Murphy's Bivvy","status":"OPEN","region":"Canterbury","lat":-43.467787,"lon":170.677519},{"assetId":100065473,"name":"McCoy Hut","status":"OPEN","region":"Canterbury","lat":-43.378348,"lon":170.775642},{"assetId":100065474,"name":"Louper Bivvy","status":"OPEN","region":"Canterbury","lat":-43.268609,"lon":170.965361},{"assetId":100065477,"name":"Eade Memorial Hut","status":"OPEN","region":"Canterbury","lat":-43.519266,"lon":170.482121},{"assetId":100065478,"name":"Red Hut","status":"OPEN","region":"Canterbury","lat":-43.998654,"lon":169.833547},{"assetId":100065479,"name":"Erceg Hut","status":"OPEN","region":"Canterbury","lat":-43.846388,"lon":169.916224},{"assetId":100065857,"name":"West Burn Hut","status":"OPEN","region":"Southland","lat":-45.206256,"lon":168.15353},{"assetId":100065936,"name":"Forks Hut","status":"OPEN","region":"Southland","lat":-45.1139,"lon":168.127428},{"assetId":100071867,"name":"Doughboy Bay Hut","status":"OPEN","region":"Southland","lat":-47.031288,"lon":167.706051},{"assetId":100071868,"name":"Caswell Sound Hut","status":"OPEN","region":"Fiordland","lat":-45.04802,"lon":167.30905},{"assetId":100071870,"name":"Worsley Hut","status":"OPEN","region":"Fiordland","lat":-44.942686,"lon":167.833923},{"assetId":100072011,"name":"Christmas Village Hut","status":"OPEN","region":"Southland","lat":-46.743917,"lon":167.979415},{"assetId":100072022,"name":"Martin's Hut","status":"OPEN","region":"Southland","lat":-46.261622,"lon":167.859972},{"assetId":100072023,"name":"Becketts Hut","status":"OPEN","region":"Southland","lat":-45.655324,"lon":168.002598},{"assetId":100072024,"name":"Mansion Hut","status":"OPEN","region":"Southland","lat":-45.500013,"lon":168.424496},{"assetId":100072025,"name":"Upper Cromel Hut","status":"OPEN","region":"Southland","lat":-45.445772,"lon":168.327381},{"assetId":100072277,"name":"Port Adventure Hunters Hut","status":"OPEN","region":"Southland","lat":-47.049544,"lon":168.176611},{"assetId":100072446,"name":"Upper Princhester Hut","status":"OPEN","region":"Southland","lat":-45.62114,"lon":167.91419},{"assetId":100072447,"name":"Redcliff Hut","status":"OPEN","region":"Southland","lat":-45.720024,"lon":167.825821},{"assetId":100072448,"name":"Oreti Hut","status":"OPEN","region":"Southland","lat":-45.481638,"lon":168.12672},{"assetId":100072451,"name":"Yankee River Hut","status":"OPEN","region":"Southland","lat":-46.694745,"lon":167.888211},{"assetId":100072672,"name":"Bungaree Hut","status":"OPEN","region":"Southland","lat":-46.809052,"lon":168.03357},{"assetId":100073465,"name":"Long Harry Hut","status":"OPEN","region":"Southland","lat":-46.694402,"lon":167.807631},{"assetId":100073711,"name":"Southwest Arm Hunters Hut","status":"OPEN","region":"Southland","lat":-46.935622,"lon":167.98424},{"assetId":100074443,"name":"Green Lake Hut","status":"OPEN","region":"Fiordland","lat":-45.785514,"lon":167.400032},{"assetId":100074496,"name":"Taipo Hut","status":"OPEN","region":"Southland","lat":-45.050924,"lon":168.222257},{"assetId":100074649,"name":"Clark Hut - A Frame","status":"OPEN","region":"Fiordland","lat":-45.792325,"lon":167.331364},{"assetId":100074675,"name":"Freeman Burn Hut","status":"OPEN","region":"Fiordland","lat":-45.440572,"lon":167.380544},{"assetId":100074713,"name":"Hope Arm Hut","status":"OPEN","region":"Fiordland","lat":-45.589908,"lon":167.541433},{"assetId":100074844,"name":"Bull Flat Hut","status":"OPEN","region":null,"lat":-44.157993,"lon":169.538004},{"assetId":100074849,"name":"Colin Todd Hut","status":"OPEN","region":"Otago","lat":-44.37208,"lon":168.694543},{"assetId":100074854,"name":"Greenstone Hut","status":"OPEN","region":"Otago","lat":-44.980896,"lon":168.262539},{"assetId":100074858,"name":"Dart Hut","status":"OPEN","region":"Otago","lat":-44.52158,"lon":168.554488},{"assetId":100074877,"name":"Clark Hut","status":"OPEN","region":"Fiordland","lat":-45.784492,"lon":167.31851},{"assetId":100074899,"name":"Teal Bay Hut","status":"OPEN","region":"Fiordland","lat":-46.066539,"lon":167.294708},{"assetId":100075307,"name":"Monument Hut","status":"OPEN","region":"Canterbury","lat":-44.023988,"lon":169.811847},{"assetId":100075440,"name":"Barron Saddle Hut","status":"OPEN","region":"Canterbury","lat":-43.760188,"lon":169.999937},{"assetId":100075442,"name":"Empress Hut","status":"OPEN","region":"Canterbury","lat":-43.594787,"lon":170.121747},{"assetId":100075443,"name":"Haast Hut","status":"CLSD","region":null,"lat":-43.583207,"lon":170.196998},{"assetId":100075444,"name":"Tasman Saddle Hut","status":"OPEN","region":"Canterbury","lat":-43.513814,"lon":170.341967},{"assetId":100075445,"name":"Liebig Hut","status":"OPEN","region":"Canterbury","lat":-43.629144,"lon":170.310138},{"assetId":100075583,"name":"Stony Stream Bivvy","status":"OPEN","region":"Canterbury","lat":-42.463434,"lon":172.627801},{"assetId":100075584,"name":"Jervois Hut","status":"OPEN","region":"Canterbury","lat":-42.415468,"lon":172.578143},{"assetId":100075585,"name":"Brass Monkey Bivvy","status":"OPEN","region":"Canterbury","lat":-42.419572,"lon":172.316167},{"assetId":100075586,"name":"Doubtful Hut","status":"OPEN","region":"Canterbury","lat":-42.531179,"lon":172.283268},{"assetId":100075587,"name":"Doubtless Hut","status":"OPEN","region":"Canterbury","lat":-42.522018,"lon":172.226261},{"assetId":100075589,"name":"Mackenzie Bivvy (East branch) ","status":"OPEN","region":"Canterbury","lat":-42.647548,"lon":172.065546},{"assetId":100075590,"name":"Upper South Branch Hurunui Hut","status":"OPEN","region":"Canterbury","lat":-42.764839,"lon":171.985564},{"assetId":100080906,"name":"Liverpool Hut","status":"OPEN","region":"Otago","lat":-44.431197,"lon":168.665284},{"assetId":100080909,"name":"Fern Burn Hut","status":"OPEN","region":"Otago","lat":-44.73976,"lon":168.984674},{"assetId":100081177,"name":"Rodger Inlet Hut","status":"OPEN","region":"Fiordland","lat":-45.857435,"lon":167.443142},{"assetId":100081526,"name":"Homestead Hunters Hut","status":"OPEN","region":"Southland","lat":-46.920537,"lon":167.796984},{"assetId":100081528,"name":"Martins Creek Hunters Hut","status":"OPEN","region":"Southland","lat":-46.939114,"lon":167.760918},{"assetId":100082266,"name":"Wire Yards Hut","status":"OPEN","region":null,"lat":-44.851219,"lon":170.116613},{"assetId":100082268,"name":"Ida Railway Hut","status":"OPEN","region":"Otago","lat":-44.849558,"lon":170.15771},{"assetId":100082269,"name":"Chimney Creek Hut","status":"OPEN","region":null,"lat":-44.815434,"lon":170.189084},{"assetId":100082270,"name":"Tailings Hut","status":"OPEN","region":"Otago","lat":-44.85732,"lon":170.240658},{"assetId":100082272,"name":"Buster Hut","status":"OPEN","region":"Otago","lat":-44.921976,"lon":170.263613},{"assetId":100082273,"name":"Brown Hut","status":"OPEN","region":"Otago","lat":-44.888567,"lon":170.264641},{"assetId":100082661,"name":"Slaughterburn Hut ","status":"OPEN","region":"Fiordland","lat":-46.192167,"lon":167.06574},{"assetId":100083032,"name":"Growler Hut","status":"OPEN","region":"Canterbury","lat":-43.510795,"lon":170.738827},{"assetId":100083033,"name":"Royal Hut","status":"OPEN","region":"Canterbury","lat":-43.725875,"lon":170.734163},{"assetId":100083034,"name":"Dog Kennel Bivvy","status":"OPEN","region":"Canterbury","lat":-43.584111,"lon":170.80988},{"assetId":100083035,"name":"Stone Hut","status":"OPEN","region":"Canterbury","lat":-43.686408,"lon":170.77106},{"assetId":100083243,"name":"Crooked Spur Hut","status":"OPEN","region":"Canterbury","lat":-43.623891,"lon":170.789844},{"assetId":100083563,"name":"Scotties Hut","status":"OPEN","region":"Canterbury","lat":-42.42971,"lon":172.639951},{"assetId":100084247,"name":"Tribulation Hut","status":"OPEN","region":"Canterbury","lat":-43.45548,"lon":171.459265},{"assetId":100085248,"name":"Hut Creek Hut","status":"OPEN","region":"Otago","lat":-44.833263,"lon":170.279545},{"assetId":100085582,"name":"Stodys Hut","status":"OPEN","region":"Otago","lat":-44.544274,"lon":169.435642},{"assetId":100085583,"name":"Pakituhi Hut","status":"OPEN","region":"Otago","lat":-44.581661,"lon":169.356167},{"assetId":100085625,"name":"Moonlight and Roses Hut","status":"OPEN","region":"Otago","lat":-44.49386,"lon":169.400094},{"assetId":100085918,"name":"Stanley Vale Hut","status":"OPEN","region":"Canterbury","lat":-42.316007,"lon":172.660319},{"assetId":100085931,"name":"Pool Hut","status":"OPEN","region":"Canterbury","lat":-42.395795,"lon":172.615601},{"assetId":100088813,"name":"Ball Hut","status":"OPEN","region":"Canterbury","lat":-43.624742,"lon":170.190841},{"assetId":100090113,"name":"Anne Hut","status":"OPEN","region":"Canterbury","lat":-42.351117,"lon":172.528927},{"assetId":100090254,"name":"Garston Ski Hut","status":"OPEN","region":null,"lat":-45.453934,"lon":168.747902},{"assetId":100090255,"name":"McKellar Hut","status":"OPEN","region":"Otago","lat":-44.871759,"lon":168.14542},{"assetId":100090949,"name":"Upper Lords Hunters Hut","status":"OPEN","region":"Southland","lat":-47.075007,"lon":168.049907},{"assetId":100091403,"name":"Siberia Hut","status":"OPEN","region":"Otago","lat":-44.204749,"lon":169.061575},{"assetId":100091439,"name":"Philip J Cox Memorial Hut","status":"OPEN","region":"Otago","lat":-45.711559,"lon":170.497247},{"assetId":100094105,"name":"Green Point Hut","status":"OPEN","region":"Canterbury","lat":-43.79022,"lon":170.239695},{"assetId":100094109,"name":"Jollie Hut","status":"OPEN","region":"Canterbury","lat":-43.852923,"lon":170.198818},{"assetId":100094217,"name":"South Opuha Hut","status":"OPEN","region":"Canterbury","lat":-43.891666,"lon":170.727385},{"assetId":100096404,"name":"Mid Caples Hut","status":"OPEN","region":"Otago","lat":-44.891876,"lon":168.273162},{"assetId":100096756,"name":"DOME BURN SOD HUT","status":"OPEN","region":null,"lat":-45.644689,"lon":168.721071},{"assetId":100098680,"name":"Leaning Lodge (Re-built)","status":"CLSD","region":null,"lat":-45.419668,"lon":170.08707},{"assetId":100098966,"name":"Murray Hunters Hut","status":"OPEN","region":"Southland","lat":-46.781663,"lon":167.998344},{"assetId":100099984,"name":"WANAKA FACES HUT","status":"OPEN","region":null,"lat":-44.53363,"lon":169.144668},{"assetId":100101442,"name":"Smoky Hunters Hut","status":"OPEN","region":"Southland","lat":-46.70442,"lon":167.831411},{"assetId":100101767,"name":"Cookies Hut","status":"OPEN","region":"Canterbury","lat":-43.485384,"lon":171.442689},{"assetId":100102907,"name":"Rod Donald Hut","status":"OPEN","region":"Canterbury","lat":-43.72031,"lon":172.797603},{"assetId":100122465,"name":"Waiau Hut","status":"OPEN","region":"Canterbury","lat":-42.180196,"lon":172.661216},{"assetId":100122608,"name":"CHRISTMAS VILLAGE HUNTERS HUT - 2017","status":"OPEN","region":null,"lat":-46.750783,"lon":167.981212},{"assetId":100122736,"name":"Veil Biv","status":"OPEN","region":"Canterbury","lat":-43.387911,"lon":170.684079},{"assetId":100128523,"name":"Little Hellfire Hunters Hut - 2018","status":"OPEN","region":null,"lat":-46.860257,"lon":167.758471},{"assetId":100132645,"name":"ONE TON HUT (MOONLIGHT CREEK)","status":"OPEN","region":null,"lat":-44.921119,"lon":168.551219},{"assetId":100033509,"name":"Te Waiotukapiti Hut","status":"OPEN","region":"East Coast","lat":-38.810314,"lon":176.855998},{"assetId":100128444,"name":"Moonlight Tops Hut","status":"OPEN","region":"West Coast","lat":-42.241536,"lon":171.405486},{"assetId":100128448,"name":"Pororari Hut","status":"OPEN","region":"West Coast","lat":-42.170791,"lon":171.424843},{"assetId":100130661,"name":"Ōtamahua Hut","status":"OPEN","region":"Canterbury","lat":-43.628626,"lon":172.697158},{"assetId":100130805,"name":"Powell Hut","status":"OPEN","region":"Wairarapa","lat":-40.884819,"lon":175.424185},{"assetId":100131850,"name":"New Waiotauru Hut","status":"OPEN","region":null,"lat":-40.939075,"lon":175.18521},{"assetId":100132129,"name":"Te Whare Okioki","status":"OPEN","region":"Bay of Plenty","lat":-37.777238,"lon":175.915643},{"assetId":100034981,"name":"Packhorse Hut","status":"OPEN","region":"Canterbury","lat":-43.702023,"lon":172.692433},{"assetId":100062598,"name":"Hope Kiwi Lodge","status":"OPEN","region":"Canterbury","lat":-42.641958,"lon":172.237267},{"assetId":100061641,"name":"Pouakai Hut","status":"OPEN","region":"Taranaki","lat":-39.235126,"lon":174.037444},{"assetId":100075588,"name":"St Jacob's Hut","status":"OPEN","region":"Canterbury","lat":-42.604947,"lon":172.236354},{"assetId":100060940,"name":"Ces Clark Hut","status":"OPEN","region":"West Coast","lat":-42.293833,"lon":171.391927}]